,보관소(대여소)명,자치구,상세주소,위도,경도,shortest_road,법정동
0, 경복궁역 7번출구 앞,종로구,서울특별시 종로구 사직로 지하130 경복궁역 7번출구 앞,37.57579422,126.9714508,사직로12길,내자동
1, 경복궁역 4번출구 뒤,종로구,서울특별시 종로구 사직로 지하130 경복궁역 4번출구 뒤,37.57594681,126.9740601,사직로,적선동
2, 광화문역 1번출구 앞,종로구,서울특별시 종로구 세종대로 지하189 세종로공원,37.57176971,126.9746628,세종대로23길,당주동
3, 종로구청 옆,종로구,서울특별시 종로구 세종로 84-1,37.57255936,126.9783325,종로1길,세종로
4, 서울역사박물관 앞,종로구,서울특별시 종로구 새문안로 55 서울역사박물관 앞,37.56999969,126.9710999,경희궁1길,신문로2가
5, 광화문 S타워 앞,종로구,서울특별시 종로구 새문안로 82 광화문S타워 앞,37.56996918,126.973938,덕수궁길,신문로1가
6, 광화문역 6번출구 옆 B,종로구,서울특별시 종로구 새문안로 102-2 가로판매대,37.56996155,126.9761581,세종대로21길,신문로1가
7, 국립현대미술관,종로구,서울특별시 종로구 삼청로 30 국립현대미술관 서울관,37.5797081,126.9808579,삼청로2길,소격동
8, 종각역 1번출구 앞,종로구,서울특별시 종로구 종로 47 종각역 1번출구 앞,37.57039642,126.9817886,종로7길,종로1가
9, 안국역 5번출구 앞,종로구,서울특별시 종로구 율곡로 지하62 안국역 5번출구 앞,37.57624054,126.9861603,율곡로,경운동
10, 낙원상가 옆,종로구,서울특별시 종로구 삼일대로 428 낙원상가 옆,37.57335663,126.9874649,인사동4길,낙원동
11, 탑골공원 앞,종로구,서울특별시 종로구 종로 99 탑골공원 앞,37.57039642,126.9881897,삼일대로20길,종로2가
12, 청계2가 사거리 옆,종로구,서울특별시 종로구 청계천로 93 파고다타워,37.56848526,126.9878845,청계천로,관철동
13, 종로3가역 2번출구 뒤,종로구,서울특별시 종로구 종로 지하129 종로3가역 2번출구 뒤,37.5705986,126.9917908,수표로22길,종로3가
14, 종로3가역 15번출구 앞,종로구,서울특별시 종로구 종로 지하129 15번출구 앞,37.57019806,126.9912567,종로18길,종로3가
15, 창경궁 입구,종로구,서울특별시 종로구 창경궁로 185 창경궁 입구,37.57897949,126.9964752,창경궁로,와룡동
16, 세운스퀘어 앞,종로구,서울특별시 종로구 창경궁로 109 세운스퀘어 앞,37.57095718,126.9971237,창경궁로13길,종로4가
17, 종로4가 사거리,종로구,서울특별시 종로구 종로 185 종로4가 사거리,37.57106781,126.9981918,종로,종로4가
18, 혜화동 로터리,종로구,서울특별시 종로구 창경궁로 271-1 혜화동 로터리,37.58562851,127.000679,혜화로,혜화동
19, 혜화역 3번출구 뒤,종로구,서울특별시 종로구 대학로 지하120 혜화역 3번출구 뒤,37.58156967,127.0017853,대학로,명륜4가
20, 대학로 마로니에공원,종로구,서울특별시 종로구 대학로 104 대학로 마로니에공원,37.57978439,127.002533,대학로,동숭동
21, 예일빌딩(율곡로) 앞,종로구,서울특별시 종로구 충신동 60,37.57561111,127.0046997,율곡로,충신동
22, 성균관대 E하우스 앞,종로구,서울특별시 종로구 율곡로 259 성균관대 E하우스 앞,37.57403564,127.0067215,율곡로,충신동
23, 서울보증보험본사 앞,종로구,서울특별시 종로구 김상옥로 29 서울보증보험본사 앞,37.57330704,127.0007095,종로31가길,연지동
24, 독립문역 사거리,종로구,서울특별시 종로구 교북동 10-1 독립문역 사거리,37.57202911,126.9607849,통일로,교북동
25, 사직동주민센터,종로구,서울특별시 종로구 사직로9길 5 사직동주민센터,37.57633209,126.9685898,사직로9가길,사직동
26, 청운초교 앞 삼거리,종로구,서울특별시 종로구 청운동 108-22 청운초교 앞 삼거리,37.58507919,126.9706192,자하문로28길,청운동
27, 중앙고입구 삼거리,종로구,서울특별시 종로구 창덕궁길 191 중앙고입구 삼거리,37.58341599,126.9852371,창덕궁길,가회동
28, 재동초교 앞 삼거리,종로구,서울특별시 종로구 재동 19 재동초교 앞 삼거리,37.57938766,126.9849472,북촌로5길,재동
29, 포르투갈 대사관 앞,종로구,서울특별시 종로구 창덕궁1길 3 포르투갈 대사관 앞,37.57915497,126.9889603,창덕궁1길,원서동
30, 서울사대부속초교 앞,종로구,서울특별시 종로구 연건동 178-3 서울사대부속초교 앞,37.57650757,127.0024567,율곡로,연건동
31, KT혜화지사 앞,종로구,서울특별시 종로구 대학로 65 KT혜화지사 앞,37.57714462,127.0020599,율곡로,연건동
32, 성대입구 사거리,종로구,서울특별시 종로구 창경궁로 234 성대입구 사거리,37.58250046,126.9985352,창경궁로,명륜4가
33, 원남동사거리,종로구,서울특별시 종로구 율곡로 169 원남동사거리,37.57606125,126.9976807,창경궁로22길,원남동
34, 동묘앞역 1번출구 뒤,종로구,서울특별시 종로구 숭인동 81-39 동묘앞역 1번출구 뒤,37.57324219,127.0159073,종로56길,숭인동
35, 청계8가 사거리,종로구,서울특별시 종로구 청계천로 407 청계8가 사거리,37.57222366,127.0227051,난계로25길,숭인동
36, 신설동역 11번출구 뒤,종로구,서울특별시 종로구 종로 411-3 가로판매,37.57559204,127.02285,보문로1길,숭인동
37, 창신역 1번출구 앞,종로구,서울특별시 종로구 지봉로 87 창신역 1번출구 앞,37.57933426,127.0150833,지봉로,창신동
38, 독립문역 3-1번출구,종로구,서울특별시 종로구 무악동 41-7 독립문역 3번출구 뒤,37.57384872,126.9586945,통일로,무악동
39, SK 서린빌딩 앞,종로구,서울특별시 종로구 서린동 93-2 SK 서린빌딩 앞,37.5692482,126.9805374,종로,서린동
40, 광화문 시민열린마당,종로구,서울특별시 종로구 세종로 76-5 광화문 시민열린마당,37.57549286,126.9785004,종로1길,세종로
41, 종각역 5번출구,종로구,서울특별시 종로구 서린동 26-1 종각역 5번출구,37.56983566,126.9826584,청계천로,서린동
42, 동성중학교 앞,종로구,서울특별시 종로구 혜화동 56 동성중학교 앞,37.58573532,127.0016098,혜화로2길,혜화동
43, 동대문역 8번 출구,종로구,서울특별시 종로구 율곡로 지하 308 동대문역 8번출구,37.57014084,127.0093765,종로50다길,종로6가
44, 경희궁 자이 3단지,종로구,서울특별시 종로구 경교장길 35 경희궁자이 3단지,37.56748962,126.9659195,통일로,평동
45, 경희궁 자이 2단지,종로구,서울특별시 종로구 송월길 99 경희궁 자이 3단지,37.56885529,126.9645615,통일로8길,송월동
46, 종묘공영주차장 건너편,종로구,서울특별시 종로구 종로 지하 200 종묘공영주차장 건너편,37.57048035,126.9966354,종로30길,종로4가
47, 상명대입구,종로구,서울특별시 종로구 홍지문길 1 상명대 입구,37.60012817,126.9578323,세검정로,홍지동
48, 신영동삼거리,종로구,서울특별시 종로구 진흥로 499 신영동 삼거리,37.60399246,126.9619446,진흥로,신영동
49, 일성아파트,종로구,서울특별시 종로구 평창문화로 119 일성아파트,37.60871887,126.9728622,평창문화로,평창동
50, 효자동 삼거리,종로구,서울특별시 종로구 효자로13길 45 종로구 궁정동 98-2,37.58360291,126.9725494,효자로13길,효자동
51, 청와대앞길,종로구,서울특별시 종로구 청와대로 73 종로구 세종로 1-54,37.58351517,126.9796677,삼청로7나길,팔판동
52, 동대문 종합시장 버스정류장,종로구,서울특별시 종로구 종로 239 동대문 종합시장 버스정류장,37.57123947,127.0044098,대학로2길,종로5가
53, 종로오가 지하쇼핑센터 14번출구,종로구,서울특별시 종로구 종로 지하 200 종로5가 지하쇼핑센터 14번출구,37.57114029,127.0006714,종로,종로5가
54, 종로2가 버스정류장 (종각방향),종로구,서울특별시 종로구 종로 79-1 종로2가 버스정류장 (종각방향),37.57035828,126.9863815,삼일대로,종로2가
55, 종로6가역 버스정류장(동대문 방향),종로구,서울특별시 종로구 종로 254-1 삼익한의원,37.570961,127.0060577,종로,종로5가
56, 숭인2동 주민센터 입구,종로구,서울특별시 종로구 종로 383-1 숭인2동 주민센터 입구 (이강3대냉면),37.57447052,127.0198288,종로,숭인동
57, 종로꽃시장 입구 옆,종로구,서울특별시 종로구 율곡로 지하 308 종로?시장 입구 옆,37.57131958,127.0072098,종로43길,종로6가
58, 광화문역 5번출구,종로구,서울특별시 종로구 세종대로 152 일민미술관,37.56989288,126.9775696,종로,세종로
59, 서울지방경찰청,종로구,서울특별시 종로구 사직로8길 31 서울지방경찰청,37.57436371,126.9723663,사직로8길,내자동
60, 신영동삼거리(북악터널방향),종로구,서울특별시 종로구 평창문화로 6-4 신영동삼거리(북악터널방향),37.60351181,126.9620667,평창문화로,신영동
61, 삼청동 골목,종로구,서울특별시 종로구 팔판길 46 삼청동 골목,37.58419037,126.9816971,삼청로,삼청동
62, 삼청공원 앞,종로구,서울특별시 종로구 삼청동 25-32,37.58760452,126.9835968,북촌로,삼청동
63, 평창동주민센터 앞,종로구,서울특별시 종로구 평창문화로 65 평창동 주민센터,37.60627365,126.9683228,평창12길,평창동
64,창신두산아파트,종로구,서울특별시 종로구 지봉로5길 7 두산아파트,37.57376099,127.0139389,종로53길,창신동
65,이화공영주차장,종로구,서울특별시 종로구 이화동 13-2,37.57660675,127.0055695,율곡로19길,이화동
66,서울특별시 교육청,종로구,서울특별시 종로구 송월길 48 서울특별시교육청,37.5695076,126.9670105,경교장길,신문로2가
67,서울특별시 중부교육지원청,종로구,서울특별시 종로구 대학로 8 수도빌딩,37.57185364,127.0023575,대학로2길,효제동
68,파크팰리스,종로구,서울특별시 종로구 사직로8길 20 경희궁 파크팰리스,37.57455063,126.9705505,사직로8길,내수동
69,안국동사거리(신),종로구,서울특별시 종로구 안국동 175-92,37.57580566,126.9833908,인사동길,안국동
70,종로타워빌딩,종로구,서울특별시 종로구 공평동 70-4,37.57051086,126.9833679,우정국로,공평동
71,종로3가역 8번출구,종로구,서울특별시 종로구 돈화문로10길 2,37.5724678,126.99189,돈화문로8길,묘동
72,종묘,종로구,서울특별시 종로구 종로 153-2 가로판매대,37.5707016,126.994812,돈화문로4길,종로3가
73,세운상가,종로구,서울특별시 종로구 종로 152,37.5703125,126.994545,돈화문로4길,종로3가
74,종로플레이스,종로구,서울특별시 종로구 창경궁로 120 종로플레이스,37.57320023,126.997963,창경궁로16길,인의동
75,종로5가역 4번출구,종로구,서울특별시 종로구 종로5가 79-2,37.57117462,127.0022278,대학로2길,종로5가
76,동대문역6번출구,종로구,서울특별시 종로구 종로 302 1호선 동대문역,37.57146072,127.010788,종로46가길,창신동
77,동묘앞역 6번출구,종로구,서울특별시 종로구 창신동 397-6,37.5715332,127.0156174,지봉로,창신동
78,창신3동주민센터,종로구,서울특별시 종로구 창신동 23-825,37.57772446,127.0152512,지봉로,창신동
79,창신역2번 출구,종로구,서울특별시 종로구 창신동 1-105,37.57998657,127.0150604,지봉로17길,창신동
80,국립어린이과학관,종로구,서울특별시 종로구 와룡동 2-85,37.58194733,126.9973679,창경궁로27길,와룡동
81, 성균관대입구사거리,종로구,서울특별시 종로구 명륜2가 197-4,37.58327484,126.9988556,창경궁로,명륜2가
82,혜화역 1번출구,종로구,서울특별시 종로구 대학로 144 중원빌딩,37.58385468,127.0018539,대학로14길,혜화동
83,성균관대 정문,종로구,서울특별시 종로구 명륜2가 133,37.58479691,126.9971314,성균관로,명륜2가
84,현대그룹(본사),종로구,서울특별시 종로구 연지동 1-38,37.57583618,127.0006943,율곡로,연지동
85,광화문 풍림스페이스본 1단지앞,종로구,서울특별시 종로구 사직동 9-2,37.57529068,126.968956,사직로8길,사직동
86,독립문역 2번출구 뒤,종로구,서울특별시 종로구 무악동 32-3,37.57501602,126.9575501,통일로,무악동
87,인왕산 아이파크 정문,종로구,서울특별시 종로구 무악동 60-5,37.57666779,126.9558487,통일로,무악동
88,서울미술관,종로구,서울특별시 종로구 부암동 202-1,37.59512711,126.9634934,창의문로12길,부암동
89,HW컨벤션센터 앞,종로구,서울특별시 종로구 부암동 134-2,37.59725952,126.963089,자하문로,부암동
90,구기치안센터 앞,종로구,서울특별시 종로구 비봉길 12,37.60950089,126.9566803,비봉길,구기동
91,로제우스 레포츠센터,종로구,서울특별시 종로구 구기동 110-22,37.60760117,126.9576874,진흥로,구기동
92,종로2가 사거리,종로구,서울특별시 종로구 종로 98 와이.비.엠 종로빌딩,37.56999207,126.9883423,삼일대로20길,종로2가
93, 쌍용아파트2단지 정문,종로구,서울특별시 종로구 낙산길198(창신3동),37.58131409,127.0126801,낙산길,창신동
94, 청계3가 사거리,종로구,서울특별시 종로구 관수동91-1,37.56855774,126.9921188,청계천로,관수동
95, 조계사앞사거리,종로구,서울특별시 종로구 삼봉로95(견지동110),37.5721817,126.9828339,우정국로,견지동
96, 자교교회 앞,종로구,서울특별시 종로구 자하문로 56 자교교회,37.58114624,126.9712372,자하문로16길,창성동
97, 올림픽기념 국민생활관 로터리,종로구,서울특별시 종로구 혜화로 50,37.58983612,126.9993439,혜화로,혜화동
98, 웰니스센터(민방위교육장 앞),종로구,서울특별시 종로구 운니동 98-7,37.57752991,126.9891281,돈화문로11가길,운니동
99, 천지인 오피스텔 앞,종로구,서울특별시 종로구 평창동 290-15,37.60469818,126.9645157,평창1길,평창동
100, 현대 뜨레비앙 아파트 앞,종로구,서울특별시 종로구 돈화문로11가길 59,37.57528305,126.9906235,돈화문로11가길,와룡동
101, 돈의문 박물관 마을,종로구,서울특별시 종로구 새문안로 39-1 동서한의원,37.56883621,126.9695511,새문안로,신문로2가
102, 광화문역 6번출구 옆 A,종로구,서울특별시 종로구 세종로 208,37.56993103,126.9764328,세종대로21길,세종로
103, 종로문화원 건너편,종로구,서울특별시 종로구 중학동 10-3,37.57571411,126.9805069,율곡로2길,중학동
104, 정동사거리,중구,서울특별시 중구 정동길 2-1 정동사거리,37.56805038,126.9692307,새문안로,충정로1가
105, 청계광장 옆,중구,서울특별시 중구 세종대로 136 청계광장 옆,37.56887817,126.9774704,세종대로,태평로1가
106, 광교사거리 남측,중구,서울특별시 중구 남대문로 125 DGB금융센터,37.56863403,126.9823151,남대문로,다동
107, 을지로입구역 4번출구 앞,중구,서울특별시 중구 을지로 55 명동금융센터 앞,37.56622314,126.9835892,명동9길,을지로2가
108, KEB 하나금융그룹 명동사옥 옆,중구,서울특별시 중구 을지로 66 한국외환은행 본점 앞,37.56546402,126.9841385,명동9길,을지로2가
109, 명동성당 앞,중구,서울특별시 중구 명동길 74 명동성당 앞,37.56447601,126.986969,명동길,명동2가
110, 신세계백화점 본점 앞,중구,서울특별시 중구 충무로1가 53-6,37.56143188,126.9806976,남대문시장길,남대문로3가
111, 을지로2가 사거리 북측,중구,서울특별시 중구 을지로 79 을지로2가 사거리 북측,37.56638336,126.9872055,명동13길,을지로2가
112, 을지로2가 사거리 남측,중구,서울특별시 중구 을지로 100 을지로2가 사거리 남측,37.56599045,126.987793,명동13길,을지로2가
113, 충무로역 6번출구 앞,중구,서울특별시 중구 퇴계로 214 충무로역 3.4호선,37.56144714,126.9931107,퇴계로37길,필동1가
114, 맥스타일 앞,중구,서울특별시 중구 마장로 3 맥스타일,37.56918335,127.0098801,장충단로,을지로6가
115, 동대문역사문화공원역 9번출구 앞,중구,서울특별시 중구 장충단로 지하230 동대문역사문화공원역 9번출구 앞,37.56533051,127.007843,장충단로,을지로7가
116, 시청역(2호선) 9번출구 뒤,중구,서울특별시 중구 서소문로 지하127 시청역(2호선) 9번출구 뒤,37.56322861,126.9748383,서소문로,서소문동
117, 동대입구역 6번출구 뒤,중구,서울특별시 중구 동호로 지하256 동대입구역 6번출구 뒤,37.55887222,127.0055389,동호로,장충동2가
118, 약수역 3번출구 뒤,중구,서울특별시 중구 다산로 지하122 약수역 4번출구 뒤,37.55429459,127.0112,동호로,신당동
119, 청구역 2번출구 앞,중구,서울특별시 중구 청구로 77 청구역 5.6호선,37.5604744,127.0140762,청구로,신당동
120, 서울역9번출구,중구,서울특별시 중구 세종대로 지하2 서울역9번출구,37.55599976,126.9733582,후암로60길,봉래동2가
121, CJ제일제당 앞,중구,서울특별시 중구 동호로 330 CJ제일제당 앞,37.56386566,127.0027466,마른내로,쌍림동
122, 장충체육관,중구,서울특별시 중구 장충동2가 200-99 장충체육관,37.55853271,127.0069885,동호로,장충동2가
123, 약수역 10번출구 앞,중구,서울특별시 중구 신당동 357-1 약수역 10번출구 앞,37.55519867,127.0100479,동호로,신당동
124, 신당역 12번 출구 뒤,중구,서울특별시 중구 신당동 99 신당역 5번 출구,37.5658493,127.0164032,퇴계로75길,흥인동
125, 종로학원본원,중구,서울특별시 중구 청파로 456 종로학원본원 앞,37.55978012,126.9685059,청파로,중림동
126, 훈련원공원주차장 앞,중구,서울특별시 중구 을지로 227 훈련원공원주차장 앞,37.56699371,127.0034638,을지로38길,을지로5가
127, 을지로4가역 1번출구,중구,서울특별시 중구 을지로 지하 178 을지로4가역 1번출구,37.5667305,126.9966049,을지로,을지로4가
128, 충무로역 1번출구,중구,서울특별시 중구 퇴계로 212 충무로역 1번출구,37.56138992,126.9953537,퇴계로,충무로4가
129, 시립미술관,중구,서울특별시 중구 덕수궁길 61 서울시립미술관,37.56505203,126.9734039,서소문로11길,서소문동
130, 을지로3가역 3번출구,중구,서울특별시 중구 을지로 지하 129 을지로3가역 3번출구,37.56655884,126.9924393,을지로13길,을지로3가
131, 서울역 센트럴 자이아파트,중구,서울특별시 중구 만리재로 175 서울역 센트럴 자이아파트,37.55410767,126.9654083,만리재로,만리동2가
132, 명보사거리,중구,서울특별시 중구 을지로 지하 129 명보사거리,37.56439972,126.9914322,수표로12길,초동
133, 송도병원,중구,서울특별시 중구 다산로 59-1 송도병원,37.54988861,127.0073471,다산로5길,신당동
134, 장충동먹자골목 앞,중구,서울특별시 중구 장충단로 192 KEB하나은행 장충동지점,37.56207275,127.0063171,장충단로7길,장충동1가
135, 청계천 영도교,중구,서울특별시 중구 청계천로 400 롯데캐슬베네치아,37.5710144,127.0197449,난계로21길,황학동
136, 을지로입구역 2번출구,중구,서울특별시 중구 을지로 지하 42 을지로입구역 1번출구,37.56634521,126.9822922,을지로3길,을지로1가
137, 신당 래미안 버스정류장,중구,서울특별시 중구 퇴계로90길 74 신당 레미안 버스정류장 (112동 인근),37.56148911,127.0239334,난계로,신당동
138, SK 남산빌딩,중구,서울특별시 중구 퇴계로 33 SK 남산빌딩,37.55686188,126.9756165,소월로,남대문로5가
139, 서울역 서부교차로2,중구,서울특별시 중구 퇴계로 33 서울역 서부교차로2,37.55536652,126.9686432,청파로95길,서계동
140,염천교사거리,중구,서울특별시 중구 칠패로 5 서소문공원,37.55989075,126.9714966,칠패로,순화동
141,서울역 서부,중구,서울특별시 중구 퇴계로 33 서울로7017편의시설,37.55641556,126.9691925,만리재로,만리동1가
142,호암아트홀,중구,서울특별시 중구 세종대로7길 57-1 구두수선대207 호암아트홀,37.5621109,126.9707184,서소문로,순화동
143,대한상공회의소,중구,서울특별시 중구 세종대로 39 대한서울상공회의소,37.56015396,126.9741058,세종대로7길,남대문로4가
144,롯데호텔,중구,서울특별시 중구 을지로 30 롯데호텔,37.56584167,126.9798126,남대문로9길,을지로1가
145,한국은행,중구,서울특별시 중구 남대문로3가 110-8,37.5622139,126.9808655,소공로,남대문로3가
146,웨스틴 조선호텔,중구,서울특별시 중구 소공로 106 서울 웨스틴조선호텔,37.56415939,126.9794846,세종대로18길,소공동
147,회현역 1번출구,중구,서울특별시 중구 퇴계로 72 리더스뷰남산,37.5592308,126.9801407,퇴계로10길,회현동1가
148,회현역 7번출구,중구,서울특별시 중구 회현동1가 23-1,37.55974579,126.9800034,남대문시장10길,회현동1가
149,회현사거리 남측,중구,서울특별시 중구 퇴계로 100 스테이트타워 남산,37.56035995,126.9826508,퇴계로14길,회현동2가
150,삼일교(시그니쳐 타워),중구,서울특별시 중구 수표동 99-1,37.56787109,126.9884033,청계천로,수표동
151,을지로4가역 9번출구,중구,서울특별시 중구 을지로 170,37.56605148,126.9979858,창경궁로,을지로4가
152,동대문역사문화공원역 1번출구 뒤편,중구,서울특별시 중구 을지로7가 143,37.56629944,127.0084915,장충단로,을지로7가
153,DDP 패션몰,중구,서울특별시 중구 신당동 853,37.56764984,127.0118103,마장로1길,신당동
154,광희문,중구,서울특별시 중구 광희동2가 105-32,37.56443024,127.0099564,퇴계로,광희동2가
155,앰배서더 호텔 주변,중구,서울특별시 중구 장충동2가 191-65,37.55928802,127.0026856,동호로25가길,장충동2가
156,동대입구역 3번 출구,중구,서울특별시 중구 장충동2가 199-4,37.55937576,127.0060272,동호로,장충동2가
157,약수역 6번 출구,중구,서울특별시 중구 다산로 122 약수역 3호선,37.55432129,127.010704,다산로,신당동
158,신당역 10번 출구,중구,서울특별시 중구 다산로 269 광희초등학교,37.56703186,127.0157929,퇴계로75길,신당동
159,남산타운아파트 버스정류장,중구,서울특별시 중구 다산로 32 남산타운,37.54758453,127.0064392,동호로17길,신당동
160,도동삼거리,중구,서울특별시 중구 남창동 205-4,37.55614853,126.9774246,퇴계로2길,남창동
161,서울역5번출구,중구,서울특별시 중구 세종대로 2 서울역 1호선,37.55677032,126.9731979,세종대로2길,남대문로5가
162, 삼성사이버빌리지아파트,중구,서울특별시 중구 중림로 10 중림동 삼성 사이버 빌리지,37.55891418,126.964859,중림로,중림동
163, 시청역 10번출구,중구,서울특별시 중구 서소문로 103,37.56284332,126.9726181,서소문로,서소문동
164, 서울역 7번출구,중구,서울특별시 중구 남대문로5가 84-11,37.55664444,126.9736404,세종대로2길,남대문로5가
165, 중부경찰서앞사거리 건너편,중구,서울특별시 중구 초동 107-12,37.56474304,126.9909515,수표로,초동
166, 국제빌딩,중구,서울특별시 중구 남대문로 109,37.56693268,126.9825821,남대문로,남대문로1가
167, 동대문디자인플라자,중구,서울특별시 중구 을지로6가 18-169,37.5683136,127.0094605,장충단로,을지로6가
168, 서소문성지역사박물관,중구,서울특별시 중구 중림동 373,37.56024551,126.9687805,서소문로8길,중림동
169, 서울도시건축전시관,중구,서울특별시 중구 태평로1가 60-20,37.5670166,126.9768372,세종대로19길,태평로1가
170, 중앙일보,중구,서울특별시 중구 서소문동58-6,37.56253433,126.972496,세종대로7길,서소문동
171, 을지로입구역 8번출구,중구,서울특별시 중구 을지로1가 140-1,37.56590271,126.981781,남대문로9길,을지로1가
172, 을지로지하쇼핑센터,중구,서울특별시 중구 을지로 66 하나금융그룹 명동사옥,37.56589127,126.9844513,명동9길,을지로2가
173,서울지방고용노동청 앞,중구,서울특별시 중구 삼일대로 363 장교빌딩,37.56761551,126.9872437,청계천로,장교동
174, 신세계면세점,중구,서울특별시 중구 충무로1가 54-2,37.56005478,126.9809418,남대문시장10길,충무로1가
175, 약수동 주민센터,중구,서울특별시 중구 다산로96,37.55281448,127.0091934,다산로6길,신당동
176, 대신파이낸스센터,중구,서울특별시 중구 삼일대로 343-1 가로판매대38,37.56520844,126.9873962,삼일대로,저동1가
177, 브라운스위트레지던스,중구,서울특별시 중구 중립동 340-1,37.56147003,126.9680176,서소문로,중림동
178, 서소문역사공원,중구,서울특별시 중구 의주로2가 16-6,37.56157303,126.9684906,서소문로,의주로2가
179, 중부경찰서앞 사거리,중구,서울특별시 중구 저동2가 22-1,37.56459045,126.9907684,수표로,초동
180, 롯데시티호텔,중구,서울특별시 중구 장교동 74,37.56689835,126.9877396,삼일대로12길,장교동
181, 명동역9번 출구,중구,서울특별시 중구 퇴계로 135-14 구두수선대124,37.56122589,126.9874954,퇴계로,충무로2가
182, 퇴계로4가 교차로(중구청),중구,서울특별시 중구 퇴계로 235 남산 센트럴 자이,37.5625267,126.9983139,창경궁로1길,충무로5가
183, 동대문역사문화공원역 5번출구,중구,서울특별시 중구 광희동 1가 202-5,37.56430817,127.0064774,마른내로,광희동1가
184, 서울역 서부교차로(3),중구,서울특별시 중구 중구 한강대로 405,37.55540848,126.9694214,청파로95길,봉래동2가
185, 부산은행,중구,서울특별시 중구 무교로 6,37.5664711,126.9792557,무교로,을지로1가
186, KG타워 앞,중구,서울특별시 중구 통일로 92 케이지타워,37.56339645,126.9689407,서소문로9길,순화동
187, 황학동롯데캐슬,중구,서울특별시 중구 중구 청계천로 400,37.57162094,127.0220413,난계로25길,황학동
188, 필동 삼거리,중구,서울특별시 중구 서애로 33 티엔에스빌딩,37.55969238,126.9964829,필동로,필동3가
189, 충정로역 2호선(엘리베이터 앞),중구,서울특별시 중구 서소문로 18 에이원빌딩,37.55937576,126.9641419,서소문로,중림동
190, 중부세무서 앞,중구,서울특별시 중구 남학동 12-1,37.56092453,126.9906616,퇴계로26길,남학동
191, 목월공원 앞,용산구,서울특별시 용산구 원효로4가 109-10 목월공원 앞,37.53243256,126.9547424,원효로27길,원효로3가
192, 한강진역 2번 출구 앞,용산구,서울특별시 용산구 한남동 726-494 한강진역 2번 출구 앞,37.54115295,127.0022125,한남대로,한남동
193, 한남초교 앞 보도육교,용산구,서울특별시 용산구 한남동 725-17 한남초교 앞 보도육교,37.53813934,127.004097,한남대로27길,한남동
194, 문배어린이공원 앞,용산구,서울특별시 용산구 문배동 34-10 문배어린이공원 앞,37.53675842,126.9700012,한강대로,문배동
195, 전자랜드 본관 앞,용산구,서울특별시 용산구 한강로3가 16-8 전자랜드 본관 앞,37.5330658,126.9607315,원효로48길,한강로3가
196, 서울역 12번 출구 앞,용산구,서울특별시 용산구 동자동 14-229 서울역 12번 출구 앞,37.55227661,126.9726868,후암로57길,동자동
197, 서빙고동 금호맨션 앞,용산구,서울특별시 용산구 서빙고동 235-5 서빙고동 금호맨션 앞,37.520504,126.9897385,서빙고로62길,서빙고동
198, 한남 유수지 복개주차장,용산구,서울특별시 용산구 독서당로 18 한남 유수지 복개주차장,37.53016663,127.0074387,독서당로6길,한남동
199, 이태원지하보도,용산구,서울특별시 용산구 용산동2가 5-1812 이태원지하보도,37.53841019,126.9866486,신흥로,용산동2가
200, 녹사평역1번출구,용산구,서울특별시 용산구 용산동2가 6-7 녹사평역1번출구,37.53507996,126.9853821,녹사평대로40길,용산동2가
201, 용산전쟁기념관,용산구,서울특별시 용산구 용산동1가 8-4 용산전쟁기념관,37.53483963,126.9776611,이태원로4길,용산동1가
202, 삼각지역 3번출구,용산구,서울특별시 용산구 한강로1가 228-1 삼각지역 3번출구,37.53351212,126.9722748,한강대로53길,한강로1가
203, LIG강촌아파트 103동앞,용산구,서울특별시 용산구 이촌동301-5 LIG강촌아파트 103동앞,37.51850891,126.9787979,이촌로88길,이촌동
204, 신용산역 6번출구 앞,용산구,서울특별시 용산구 한강대로 115 신용산역 6번출구 앞,37.53014755,126.968483,새창로,한강로2가
205, 삼각지역 4번출구 앞,용산구,서울특별시 용산구 한강대로 161 삼각지역 4번출구 앞,37.53345108,126.9717331,한강대로53길,한강로1가
206, 숙명여대 입구 교차로,용산구,서울특별시 용산구 청파로47길 100 숙명여대 입구 교차로,37.54489517,126.9693832,청파로47길,청파동2가
207, 선린인터넷 고등학교,용산구,서울특별시 용산구 원효로97길 33-4 선린인터넷 고등학교,37.54165268,126.9705048,청파로,청파동3가
208, 청파동입구 교차로,용산구,서울특별시 용산구 한강대로 349 청파동입구 교차로,37.54902649,126.9719467,한강대로100길,갈월동
209, 이촌1동 마을공원,용산구,서울특별시 용산구 이촌로 219 이촌1동 마을공원,37.52202606,126.9661865,한강대로14나길,한강로3가
210, 효창동주민센터 앞,용산구,서울특별시 용산구 효창원로 161 효창동주민센터 앞,37.54232025,126.9619598,효창원로69길,효창동
211, 서빙고동 주민센터 앞,용산구,서울특별시 용산구 서빙고로 279 서빙고동 주민센터 앞,37.52033615,126.9942627,녹사평대로,서빙고동
212, 국군복지단,용산구,서울특별시 용산구 두텁바위로 54-99 국군복지단,37.54188538,126.97966,두텁바위로,용산동2가
213, 숙대입구역 8번,용산구,서울특별시 용산구 한강대로 289 숙대입구역 8번,37.54407883,126.9720001,한강대로87길,갈월동
214, 베르가모앞,용산구,서울특별시 용산구 한강대로 23 베르가모앞,37.52293015,126.9616928,한강대로7길,한강로3가
215, 청암자이아파트앞,용산구,서울특별시 용산구 원효로 35 청암자이아파트앞,37.53442383,126.9485703,삼개로,원효로4가
216, 이태원관광특구입구,용산구,서울특별시 용산구 이태원로 134 이태원관광특구입구,37.53427887,126.9885635,녹사평대로40길,이태원동
217, 이촌1동 주민센터 뒤,용산구,서울특별시 용산구 이촌로71길 24 이촌1동 주민센터 뒤,37.5212822,126.973465,이촌로71길,이촌동
218, 효창공원앞역 3번출구 뒤,용산구,서울특별시 용산구 백범로 지하 287 효창공원앞역 3번출구 뒤,37.53900909,126.96138,백범로,용문동
219, 남영역 건너편,용산구,서울특별시 용산구 한강대로77길 18 남영역 건너편,37.54198074,126.9715424,한강대로77길,갈월동
220, 현대자동차서비스 앞,용산구,서울특별시 용산구 원효로 74 현대자동차서비스 앞,37.53142166,126.9514999,원효로,원효로4가
221, 한남나들목 입구,용산구,서울특별시 용산구 서빙고로 417 한남나들목 입구,37.52906036,127.0067291,독서당로3길,한남동
222, 숙대입구역 4번출구,용산구,서울특별시 용산구 한강대로 지하 306 숙대입구역 4번출구,37.5444603,126.9723892,한강대로88길,남영동
223, 보광동 삼성리버빌아파트 앞,용산구,서울특별시 용산구 보광로5길 40 보광동 삼성리버빌아파트 앞,37.5240097,127.0014496,서빙고로91길,보광동
224, 용산 파크타워 앞,용산구,서울특별시 용산구 서빙고로 67 용산 파크타워 앞,37.52365112,126.9702683,서빙고로,용산동5가
225, 신용산역 1번 출구,용산구,서울특별시 용산구 한강대로 100 신용산역 1번 출구,37.52960968,126.9688721,한강대로38길,한강로2가
226, 녹사평역 광장,용산구,서울특별시 용산구 이태원로 134 녹사평역 광장,37.53379822,126.9886704,녹사평대로,이태원동
227, 이촌2동 동원베네스트 아파트 앞,용산구,서울특별시 용산구 이촌로14길 7 이촌2동 동원베네스트 아파트 앞,37.5271492,126.9551621,이촌로14길,이촌동
228, 용산 선인상가,용산구,서울특별시 용산구 새창로 181 선인상가,37.53269958,126.9643784,청파로20길,한강로2가
229, 용산중학교,용산구,서울특별시 용산구 두텁바위로 74 용산중학교,37.54650116,126.9809494,두텁바위로,후암동
230, 삼각지12번 출구,용산구,서울특별시 용산구 이태원로 29 전쟁기념관,37.53488922,126.9756241,이태원로2길,용산동1가
231, 삼각지 자이아파트,용산구,서울특별시 용산구 한강대로 205 용산파크자이,37.53607941,126.9734192,백범로99가길,한강로1가
232, KCC용산월츠타워,용산구,서울특별시 용산구 백범로90길 34 구두수선대,37.53739929,126.9689255,백범로90길,문배동
233,효창 푸르지오 앞,용산구,서울특별시 용산구 백범로 260 효창파크 푸르지오,37.54047775,126.9581146,백범로43길,효창동
234,청암자이APT(103동),용산구,서울특별시 용산구 삼개로 60 천년명가 청암자이,37.53452682,126.9471817,원효로,청암동
235,용산역 맞은편,용산구,서울특별시 용산구 한강로2가 409-2,37.52856827,126.9656906,한강대로23길,한강로2가
236,HID 유족동지회 앞,용산구,서울특별시 용산구 이태원로 287 6호선 한강진역,37.53872681,127.0015488,이태원로,한남동
237,이촌역5번출구 앞,용산구,서울특별시 용산구 서빙고로 83 4호선 이촌역,37.52272415,126.9727707,이촌로65가길,용산동5가
238, 현대 안성타워,용산구,서울특별시 용산구 이태원로 261-1 구두수선대,37.53502274,126.9980545,이태원로,한남동
239,녹사평역3번 출구,용산구,서울특별시 용산구 용산동4가 10-4,37.53440857,126.9868927,녹사평대로40가길,용산동4가
240,남산공원 야외식물원 앞,용산구,서울특별시 용산구 이태원동 259-16,37.54188538,126.9958649,소월로,이태원동
241,LG한강 자이아파트 앞,용산구,서울특별시 용산구 이촌동 429,37.52074814,126.9708252,이촌로65길,이촌동
242,이촌역2번 출구,용산구,서울특별시 용산구 용산동5가 17,37.52177048,126.977005,이촌로81길,용산동5가
243,순천향대학병원(한남오거리),용산구,서울특별시 용산구 한남동 704-11,37.53514099,127.0060043,대사관로31길,한남동
244,하얏트호텔 앞,용산구,서울특별시 용산구 한남동 산10-138,37.54079437,126.9978485,회나무로42길,한남동
245,브라운스톤 남산아파트,용산구,서울특별시 용산구 후암로 65 브라운스톤 남산아파트,37.551548,126.9768601,후암로,후암동
246,서빙고역 광장(1번출구),용산구,서울특별시 용산구 서빙고동 241-37,37.51990891,126.9892349,서빙고로62길,서빙고동
247,노들섬 동측 앞,용산구,서울특별시 용산구 이촌동 303-8,37.51729584,126.9591446,양녕로,이촌동
248,노들섬 서측 앞,용산구,서울특별시 용산구 이촌동 304-11,37.51731873,126.9582977,양녕로,이촌동
249, 숙명여대앞 버스정류소 주변,용산구,서울특별시 용산구 청파로47길 99,37.54498672,126.9643021,청파로47다길,청파동2가
250, 한강GS에클라트 건너편 교통섬,용산구,서울특별시 용산구 원효로4가 113-54,37.53200531,126.9555588,원효로,원효로4가
251, 원효로다목적체육관 앞,용산구,서울특별시 용산구 원효로3가 54-14,37.5332222,126.9572372,원효로,원효로3가
252," 노들섬 다목적홀(동쪽) 숲, 앞",용산구,서울특별시 용산구 이촌동 303-15,37.51758957,126.9592209,양녕로,이촌동
253, 국립중앙박물관 -용산가족공원 앞,용산구,서울특별시 용산구 용산동6가 11-438,37.52087784,126.9797134,이촌로87길,용산동6가
254, 국립중앙박물관 정문 앞,용산구,서울특별시 용산구 용산동6가 11-438,37.52145767,126.9776764,이촌로81길,용산동6가
255, 파크타워 104동 앞,용산구,서울특별시 용산구 서빙고로 69 파크타워아파트,37.52330017,126.9720612,이촌로65가길,용산동5가
256, 한남나인원 105동 앞,용산구,서울특별시 용산구 한남대로 91,37.53591919,127.0054169,대사관로31길,한남동
257, 국제루터교회 앞,용산구,서울특별시 용산구 한남대로 148,37.54143906,127.0037613,한남대로,한남동
258, 한남 준 JFSS 앞,용산구,서울특별시 용산구 이태원로 255,37.53749847,127.0008469,이태원로55길,한남동
259, 서울갤러리아 앞,용산구,서울특별시 용산구 이태원로 239,37.53599548,126.9994888,이태원로,한남동
260, 크라운호텔앞 버스정류소,용산구,서울특별시 용산구 녹사평대로 140,37.53030014,126.9913788,녹사평대로26길,이태원동
261, 신용산지하차도 앞,용산구,서울특별시 용산구 한강로3가 6,37.53248215,126.964119,청파로20길,한강로3가
262, 동원베네스트 건너편,용산구,서울특별시 용산구 한강로3가 37-2,37.52761078,126.9551163,이촌로14길,한강로3가
263, 풍전아파트 건너편,용산구,서울특별시 용산구 원효로4가 114-38,37.53237915,126.9525299,원효로,원효로4가
264, 한강트럼프월드3차 앞,용산구,서울특별시 용산구 한강대로 26,37.52301788,126.96241,한강대로7길,한강로3가
265, 삼각지역 14번 출구 앞(교통섬),용산구,서울특별시 용산구 이태원로 6,37.53528595,126.974083,한강대로62가길,한강로1가
266, 남산도서관 앞,용산구,서울특별시 용산구 소월로 109 남산도서관,37.55240631,126.9820175,두텁바위로,후암동
267, 한강중학교 앞 버스정류장,용산구,서울특별시 용산구 녹사평대로73,37.5251503,126.9920883,서빙고로,동빙고동
268, 라인프랜즈이태원점 앞,용산구,서울특별시 용산구 이태원로 177 6호선 이태원역,37.53453064,126.9961929,우사단로10가길,이태원동
269, 용산공원갤러리앞,용산구,서울특별시 용산구 한강로1가 1-1,37.5393219,126.9731903,한강대로72길,한강로1가
270, 효창공원앞역 5번출구 옆,용산구,서울특별시 용산구 용문동 5-47,37.53851318,126.9635544,원효로71길,용문동
271, 한강초교보도육교 앞,용산구,서울특별시 용산구 한강대로 52-1,37.52544022,126.9645996,한강대로15길,한강로3가
272, 용산 푸르지오 파크타운 1단지 앞,용산구,서울특별시 용산구 용산구 동빙고동 315,37.52529526,126.9958344,서빙고로91나길,동빙고동
273, 센트럴파크타워 앞,용산구,서울특별시 용산구 한강로2가 220-4,37.52703476,126.9661789,서빙고로3길,한강로2가
274, 이태원역 3번 출구,용산구,서울특별시 용산구 이태원로 186 국민은행,37.53440094,126.9946671,이태원로,이태원동
275, 용산구꿈나무종합타운 앞,용산구,서울특별시 용산구 원효로2가 1-73,37.53786087,126.9656525,원효로,원효로2가
276, 용산시티파크 101동 앞,용산구,서울특별시 용산구 한강로3가 64,37.52468109,126.9681931,서빙고로20길,한강로3가
277, 청파동삼거리 앞,용산구,서울특별시 용산구 청파로 312,37.54733658,126.9703827,청파로,청파동1가
278, 동빙고근린공원,용산구,서울특별시 용산구 용산동6가 69-170,37.51794052,126.9837036,이촌로,용산동6가
279, 원효로2가 교차로,용산구,서울특별시 용산구 원효로53길 4,37.53577805,126.9622116,원효로,원효로2가
280, 아메리칸센터,용산구,서울특별시 용산구 이태원로 59,37.54039001,126.9734955,한강대로72길,용산동1가
281, 용산더프라임아파트 101동 앞,용산구,서울특별시 용산구 문배동 44,37.53930283,126.9705048,원효로90길,문배동
282, 응봉역 1번출구,성동구,서울특별시 성동구 고산자로 123 응봉동 3-10,37.55125046,127.0351028,고산자로2길,응봉동
283, 상왕십리역 1번출구,성동구,서울특별시 성동구 하왕십리동 860-1 상왕십리역 1번출구,37.56460953,127.0291977,왕십리로,홍익동
284, 왕십리교회옆,성동구,서울특별시 성동구 상왕십리동 350-1 왕십리교회옆,37.56626129,127.0236969,난계로,상왕십리동
285, 서울숲 관리사무소,성동구,서울특별시 성동구 성수동1가 678-1 서울숲 관리사무소,37.54281616,127.0420837,왕십리로,성수동1가
286, 금호스포츠센터앞,성동구,서울특별시 성동구 금호로 30 독서당 인문아카데미센터,37.54608917,127.0250702,금호로3길,금호동4가
287, 왕십리 자이아파트,성동구,서울특별시 성동구 난계로 100 왕십리 자이아파트 103동 인근,37.56179047,127.0243912,난계로,신당동
288, 왕십리자이아파트 후문(삼거리),성동구,서울특별시 성동구 무학봉길 35 왕십리자이아파트 후문(삼거리),37.56014633,127.0263596,무학봉길,하왕십리동
289, 논골사거리(금호도서관 입구),성동구,서울특별시 성동구 난계로 20 논골사거리(금호도서관 입구),37.55477905,127.0248413,난계로,금호동1가
290, 왕십리KCC스위첸아파트,성동구,서울특별시 성동구 무학봉길 35 왕십리KCC스위첸아파트,37.56068039,127.0267792,무학봉길,하왕십리동
291, 서울숲 IT캐슬,성동구,서울특별시 성동구 광나루로 130 서울숲 IT캐슬,37.55089188,127.0447617,왕십리로16가길,성수동1가
292, 금호 어울림 아파트 앞,성동구,서울특별시 성동구 광나루로 249 송정금호어울림 아파트 앞,37.54906082,127.0577927,광나루로,송정동
293, 성수아카데미타워 앞,성동구,서울특별시 성동구 성수이로 118 라성아카데미타워 앞,37.54516602,127.0575104,아차산로9길,성수동2가
294, 이마트 버스정류소 옆,성동구,서울특별시 성동구 뚝섬로 379 이마트 버스정류소 옆,37.53965378,127.0525894,성덕정11길,성수동2가
295, 서울숲 남문 버스정류소 옆,성동구,서울특별시 성동구 왕십리로11길 9 서울숲남문 버스정류소 옆,37.54122162,127.0438004,뚝섬로,성수동1가
296, 서울숲역 5번 출구 옆,성동구,서울특별시 성동구 왕십리로 지하77 서울숲역 4번 출구 옆,37.54458237,127.0446091,왕십리로,성수동1가
297, 뚝섬역 1번 출구 옆,성동구,서울특별시 성동구 아차산로 18 뚝섬역 1번 출구 옆,37.5485611,127.0450058,아차산로,성수동1가
298, 뚝섬역 5번 출구 정류소 옆,성동구,서울특별시 성동구 아차산로 18 뚝섬역 5번 출구 정류소 옆,37.54630661,127.0498047,상원2길,성수동1가
299, 성수사거리 버스정류장 앞,성동구,서울특별시 성동구 아차산로 171 성수사거리 버스정류장 앞,37.54257965,127.0633087,아차산로17길,성수동2가
300, 청계천 박물관 앞,성동구,서울특별시 성동구 마장동 610 청계천 박물관 앞,37.57152557,127.0353546,청계천로,마장동
301, 양지사거리,성동구,서울특별시 성동구 홍익동 590 양지사거리,37.56699371,127.0299149,무학로,홍익동
302, 상왕십리역 4번 출구 앞,성동구,서울특별시 성동구 하왕십리동 960-3 상왕십리역 4번 출구 앞,37.56385803,127.0303192,왕십리로,하왕십리동
303, 왕십리역 11번 출구 앞,성동구,서울특별시 성동구 행당동 188-9 왕십리역 11번 출구 앞,37.56144714,127.0349197,왕십리로21가길,행당동
304, 금호역 1번출구 앞,성동구,서울특별시 성동구 금호동3가 1575-3 금호역 1번출구 앞,37.5486412,127.0164261,동호로4길,금호동3가
305, 옥수동성당 옆,성동구,서울특별시 성동구 옥수동 산5-148 옥수동성당 옆,37.54366302,127.014061,한림말3길,옥수동
306, 래미안금호하이리버 아파트 102동 옆,성동구,서울특별시 성동구 금호동2가 1220-1 래미안금호하이리버 아파트 102동 옆,37.55220032,127.0250549,금호로,금호동2가
307, 한양대병원사거리,성동구,서울특별시 성동구 행당동 20-2 한양대병원사거리,37.55805206,127.0403519,마조로3길,행당동
308, 용답토속공원 앞,성동구,서울특별시 성동구 용답동 224-1 용답토속공원 앞,37.56351089,127.0567246,천호대로78길,용답동
309, 장한평역 8번 출구 앞,성동구,서울특별시 성동구 용답동 224-3 장안평역 8번 출구 앞,37.56137085,127.0636597,자동차시장1길,용답동
310, 청계벽산아파트 앞,성동구,서울특별시 성동구 하왕십리동 286-24 청계벽산아파트 텐즈힐아파트 정류소,37.56874847,127.0304031,무학로14길,하왕십리동
311, 금남시장 교차로,성동구,서울특별시 성동구 금호동4가 1101 우리은행 금호동 지점 앞,37.54814911,127.0210877,독서당로,금호동4가
312, 금호사거리,성동구,서울특별시 성동구 금호동2가 1205-1 금호사거리,37.54863358,127.0257263,독서당로51길,금호동2가
313, 응봉삼거리,성동구,서울특별시 성동구 응봉동 134-26 응봉삼거리,37.5539856,127.0335922,독서당로59길,응봉동
314, 행당역 2번출구 앞,성동구,서울특별시 성동구 행당동 347-11 행당역 2번출구 앞,37.55735016,127.029213,행당로,행당동
315, 한양대후문역 부근,성동구,서울특별시 성동구 행당동 10 한양대후문역 부근 (양키캔들 앞),37.56035614,127.0413971,마조로,행당동
316, 답십리역 8번출구 앞,성동구,서울특별시 성동구 용답동 102-1 답십리역 8번출구 앞,37.56764984,127.0511551,천호대로,용답동
317, 서울시설공단 앞,성동구,서울특별시 성동구 마장동 610 서울시설공단 앞,37.57164001,127.0356598,청계천로,마장동
318, 달맞이공원,성동구,서울특별시 성동구 금호동4가 367-1 달맞이공원,37.54205322,127.020401,독서당로,옥수동
319, 도선동 주민센터 앞,성동구,서울특별시 성동구 무학로10길 6 도선동 주민센터 앞,37.56764221,127.0256958,왕십리로,상왕십리동
320, 성동광진 교육지원청 앞,성동구,서울특별시 성동구 고산자로 260 성동광진 교육지원청 앞,37.56460571,127.0365219,고산자로,행당동
321, 왕십리역 4번 출구 건너편,성동구,서울특별시 성동구 왕십리광장로 10-1 왕십리역 4번 출구 건너편,37.56109619,127.0367966,왕십리로,행당동
322, 비전교회 앞,성동구,서울특별시 성동구 동일로 213 비전교회 앞,37.55120468,127.0689316,동일로,송정동
323, 서울숲역 2번출구 앞,성동구,서울특별시 성동구 왕십리로 64 서울숲역 2번출구 앞,37.54281616,127.0446701,왕십리로,성수동1가
324, 군자지하보도 앞,성동구,서울특별시 성동구 동일로 313 군자지하보도 앞,37.55924606,127.07341,동일로59가길,송정동
325, 성동세무서 건너편,성동구,서울특별시 성동구 광나루로 302 성동세무서 건너편,37.5479126,127.0627518,아차산로15길,성수동2가
326, 금호역 3번출구,성동구,서울특별시 성동구 동호로 99 금호역 3번출구,37.54792786,127.0155716,동호로,금호동4가
327, 옥수역 3번출구,성동구,서울특별시 성동구 옥수동 192-2,37.54136658,127.0177612,한림말5길,옥수동
328, 성수역 2번출구 앞,성동구,서울특별시 성동구 아차산로 113 성수역 2번출구 앞,37.54459,127.0570831,연무장9길,성수동2가
329, 청계8가사거리 부근,성동구,서울특별시 성동구 청계천로 417 청계8가사거리 부근,37.57110214,127.0235596,난계로23길,상왕십리동
330, 응봉현대아파트 정류소,성동구,서울특별시 성동구 독서당로 381 응봉동현대아파트 정류소,37.54958344,127.0302429,독서당로60길,응봉동
331, 성동세무서 부근,성동구,서울특별시 성동구 광나루로 297 성동세무서,37.54829025,127.0624619,송정길,송정동
332, 마장역 4번출구,성동구,서울특별시 성동구 마장로 292-1 마장역 4번출구,37.56520462,127.0418472,마조로16길,마장동
333, 경일중학교 앞,성동구,서울특별시 성동구 성수일로 27 경일중학교 앞,37.54317856,127.0490799,성수일로,성수동1가
334, 청계천 생태교실 앞,성동구,서울특별시 성동구 마장로39길 51 청계천 생태교실 앞,37.56797028,127.0468903,천호대로,마장동
335, 성수2가1동 공영주차장 인근,성동구,서울특별시 성동구 성수동2가 569-3 성수2가1동 공영주차장 인근,37.53680801,127.0554886,성수이로6길,성수동2가
336, 마장동 주민센터,성동구,서울특별시 성동구 마장로42길 14 마장동 주민센터,37.56594086,127.0453949,마장로42길,마장동
337, 유니베라 앞,성동구,서울특별시 성동구 성수동2가 276-5 KEB하나은행 성수중앙지점,37.54541779,127.0526428,연무장5길,성수동2가
338, 성수역3번출구,성동구,서울특별시 성동구 아차산로 100 성수동2가 315-105,37.54415894,127.0566559,연무장9길,성수동2가
339, 중랑물재생센터(서울새활용플라자),성동구,서울특별시 성동구 자동차시장길 49 중랑물재생센터,37.55836487,127.0569077,자동차시장길,용답동
340,한양대역 3번 출구,성동구,서울특별시 성동구 왕십리로 190-1 디자인노점,37.55453873,127.0437775,왕십리로,행당동
341,한양대역 1번출구,성동구,서울특별시 성동구 행당동 33,37.55657959,127.0433579,살곶이8길,행당동
342,상왕십리역 6번 출입구,성동구,서울특별시 성동구 하왕십리동 903-1,37.56438065,127.0288696,왕십리로31가길,하왕십리동
343,뚝섬역 6번출구,성동구,서울특별시 성동구 뚝섬로1길 63 영창디지털타워,37.54695892,127.0476685,상원1길,성수동1가
344,건영아파트 앞,성동구,서울특별시 성동구 동일로 265 건영아파트상가,37.55514145,127.071106,동일로,송정동
345,금호나들목,성동구,서울특별시 성동구 금호로 15 서울숲푸르지오아파트,37.54404068,127.023201,금호로1길,금호동4가
346,성동도로사업소,성동구,서울특별시 성동구 자동차시장길 11 대승모터스,37.55979919,127.0563278,자동차시장길,용답동
347,서울숲 공영주차장앞,성동구,서울특별시 성동구 성수동1가 719,37.54195786,127.0427704,왕십리로,성수동1가
348,마장역3번출구,성동구,서울특별시 성동구 마장로 302,37.565979,127.0431137,마조로18길,마장동
349,양지사거리(센트라스APT 115동앞),성동구,서울특별시 성동구 왕십리로 410 센트라스,37.56681824,127.0291519,마장로,하왕십리동
350,신금호파크자이APT앞,성동구,서울특별시 성동구 금호동2가 1-5,37.55610657,127.019783,금호로,금호동2가
351,서울숲리버뷰자이APT105동 앞,성동구,서울특별시 성동구 행당동 379-1,37.55653,127.0391312,왕십리로19길,행당동
352,마장동 금호어울림APT앞,성동구,서울특별시 성동구 마장동 336-11,37.56339645,127.0418701,마조로,마장동
353,성동구민종합체육센터 앞,성동구,서울특별시 성동구 성수동1가 685-632,37.54590988,127.0446014,왕십리로6길,성수동1가
354,성동구 견인차량 보관소 앞,성동구,서울특별시 성동구 천호대로78길 9,37.56370926,127.0564499,용답29가길,용답동
355,행당동 삼부APT후문,성동구,서울특별시 성동구 왕십리로 278-17 행당동삼부아파트상가,37.55926895,127.0383987,왕십리로,행당동
356,사근빗물펌프장 건너편,성동구,서울특별시 성동구 사근동 241-1,37.56119156,127.0496826,사근동10길,사근동
357, 코오롱디지털타워 3차앞,성동구,서울특별시 성동구 아차산로 39-1 구두수선대,37.54655838,127.0499878,상원2길,성수동1가
358, 르노삼성자동차 성수사업소 앞,성동구,서울특별시 성동구 광나루로270,37.54824448,127.0595779,성수이로,성수동2가
359, 행당중학교 후문,성동구,서울특별시 성동구 왕십리로189,37.5540123,127.0415497,살곶이길,행당동
360, 신금호역 2번출구 앞,성동구,서울특별시 성동구 신금호역 2번출구,37.55507278,127.0198898,금호로,금호동2가
361, kt 행당빌딩 앞,성동구,서울특별시 성동구 성동구 고산자로 212,37.55862045,127.0343552,고산자로6길,행당동
362, 서울숲IT캐슬 앞,성동구,서울특별시 성동구 성동구 광나루로 130,37.55141449,127.044754,왕십리로16가길,성수동1가
363, 서울숲 지식산업센터,성동구,서울특별시 성동구 서울 성동구 성수일로 10. 서울숲 itct 지식산업센터 앞,37.54127502,127.0484924,뚝섬로,성수동1가
364, 우영테크노센터 앞,성동구,서울특별시 성동구 성동구 아차산로 144,37.54332352,127.0597153,성수이로20길,성수동2가
365, 더스페이스타워 앞,성동구,서울특별시 성동구 광나루로 144 더 스페이스 타워,37.55140305,127.0463638,광나루로,성수동1가
366, 페코텍글로벌허브빌딩 앞,성동구,서울특별시 성동구 동일로 169,37.54753494,127.0668259,동일로,성수동2가
367, 푸조비즈타워 앞,성동구,서울특별시 성동구 성동구 광나루로 310,37.54808044,127.0646133,광나루로,성수동2가
368, 용답동 우체국 주변,성동구,서울특별시 성동구 천호대로 384,37.56168747,127.0615158,천호대로,용답동
369, 현대자동차 동부서비스센터 주변,성동구,서울특별시 성동구 성수이로 134 현대자동차써비스(주)동부사업소,37.546978,127.0579681,성수이로,성수동2가
370, 성수역 1번출구 주변,성동구,서울특별시 성동구 아차산로 83 에프투텔레콤,37.54555893,127.0533676,성수일로8길,성수동2가
371, 하우스디세종타워 앞,성동구,서울특별시 성동구 성수일로10길 26 하우스디 세종타워,37.54644394,127.0533218,성수일로8길,성수동2가
372, 군자역2번출구,광진구,서울특별시 광진구 능동로 313 군자역2번출구,37.55758667,127.0796967,능동로37길,중곡동
373, 광진구청 앞,광진구,서울특별시 광진구 자양로 131 광진구청 앞,37.53950119,127.0830002,자양로,자양동
374, 중곡역 1번출구,광진구,서울특별시 광진구 능동로 지하 417 중곡역 1번출구 앞,37.56565857,127.0842972,능동로51길,중곡동
375, 광진유진스웰,광진구,서울특별시 광진구 아차산로78길 7 광진유진스웰,37.55048752,127.1089554,아차산로78길,광장동
376, 원일교회,광진구,서울특별시 광진구 아차산로 304 원일교회,37.53805161,127.0765991,아차산로39길,자양동
377, 신양초교앞 교차로,광진구,서울특별시 광진구 능동로 42 신양초교앞 교차로,37.5352211,127.0683975,뚝섬로,자양동
378, 영동대교 북단,광진구,서울특별시 광진구 자양동 203-22 영동대교 북단,37.53701401,127.0610962,동일로,자양동
379, 어린이회관,광진구,서울특별시 광진구 능동 465-7 어린이회관,37.54595184,127.0780029,광나루로26길,능동
380, 화양사거리,광진구,서울특별시 광진구 화양동 21-6 화양사거리,37.54822159,127.0678787,광나루로12길,화양동
381, 세종사이버대학교,광진구,서울특별시 광진구 군자동 111-2 세종사이버대학교,37.55341721,127.0731964,군자로15길,군자동
382, 중곡SK아파트앞,광진구,서울특별시 광진구 용마산로32길 32 중곡SK아파트앞,37.56864929,127.0862503,용마산로30길,중곡동
383, 구의아리수정수센터앞,광진구,서울특별시 광진구 광나루로 571 구의아리수정수센터앞,37.54370499,127.0932465,구의로16길,광장동
384, 용마사거리,광진구,서울특별시 광진구 능동로 373 용마사거리,37.5625267,127.0822754,긴고랑로,중곡동
385, 군자역 7번출구뒤,광진구,서울특별시 광진구 천호대로 지하 550 군자역 7번출구 뒤,37.55686188,127.0791397,능동로36길,군자동
386, 광진경찰서,광진구,서울특별시 광진구 자양로 167 광진경찰서,37.54251862,127.0840836,자양로,구의동
387, 현대홈타운 뒷길,광진구,서울특별시 광진구 아차산로69길 29 현대홈타운 뒷길,37.54342651,127.0966187,아차산로,광장동
388, 건국대학교 과학관(이과대) 앞,광진구,서울특별시 광진구 능동로 120 건국대학교 과학관(이과대) 앞,37.54171753,127.0801697,자양로23가길,화양동
389, 세종대학교,광진구,서울특별시 광진구 군자로 114 세종대학교,37.55023575,127.073822,광나루로19길,군자동
390, 광진정보도서관,광진구,서울특별시 광진구 아차산로78길 90 광진정보도서관,37.55059814,127.1105118,아차산로78길,광장동
391, 어린이대공원정문,광진구,서울특별시 광진구 능동로 216 어린이대공원정문,37.54978943,127.0759277,능동로,능동
392, 건대입구역 사거리(롯데백화점),광진구,서울특별시 광진구 능동로 92 건대입구역 사거리(롯데백화점),37.53913879,127.0706177,동일로20길,자양동
393, 건대입구역 5번출구 뒤,광진구,서울특별시 광진구 아차산로 236 건대입구역 5번출구 뒤,37.54013824,127.0692825,동일로20길,자양동
394, 중앙농협(자양동),광진구,서울특별시 광진구 뚝섬로 639 중앙농협(자양동),37.53181076,127.0807419,뚝섬로,자양동
395, 아차산 휴먼시아 아파트 옆,광진구,서울특별시 광진구 천호대로 716 아차산 휴먼시아 아파트 옆,37.54848862,127.0937576,천호대로,구의동
396, 커먼그라운드,광진구,서울특별시 광진구 아차산로 200 커먼그라운드,37.54124832,127.06604,동일로20길,자양동
397, 래미안 구의파크 스위트,광진구,서울특별시 광진구 광나루로 545 래미안파크스위트,37.5450058,127.0900345,광나루로40길,구의동
398, 어린이대공원역 3번출구 앞,광진구,서울특별시 광진구 능동로 지하210 어린이대공원역 3번출구 앞,37.54706955,127.0742722,능동로,화양동
399, 광진구의회 앞,광진구,서울특별시 광진구 능동로 76 광진구의회 앞,37.53730774,127.0703507,능동로8길,자양동
400, 뚝섬유원지역 1번출구 앞,광진구,서울특별시 광진구 능동로 10 뚝섬유원지역 1번출구 앞,37.53186035,127.0671921,능동로,자양동
401, 자양사거리 광진아크로텔 앞,광진구,서울특별시 광진구 아차산로 355 타워더모스트 광진아크로텔,37.53701019,127.0822449,아차산로46가길,자양동
402, 광양중학교 앞,광진구,서울특별시 광진구 자양로3길 7 광양중학교 앞,37.53023529,127.0868301,자양로2길,자양동
403, 광진메디칼 앞,광진구,서울특별시 광진구 광나루로 355 광진메디컬앞,37.54840469,127.0693665,광나루로15길,군자동
404, 군자교교차로,광진구,서울특별시 광진구 중곡동 263-1 군자교교차로,37.55979538,127.0742035,천호대로101길,중곡동
405, 군자역 7번출구 베스트샵 앞,광진구,서울특별시 광진구 군자동 499 군자역 7번출구 베스트샵 앞,37.55603027,127.0786438,능동로31길,군자동
406, 강변역 4번출구 뒤,광진구,"서울특별시 광진구 구의동 546-6 강변역 1,4번 출구 아래",37.53546524,127.0944824,강변역로,구의동
407, 구의공원(테크노마트 앞),광진구,서울특별시 광진구 구의동 546-3 구의공원(테크노마트 앞),37.53596878,127.0946732,강변역로,구의동
408, 광남중학교,광진구,서울특별시 광진구 광장동 561-15 광남중학교,37.54072952,127.1029053,아차산로70길,광장동
409, 잠실대교북단 교차로,광진구,서울특별시 광진구 자양동 722 잠실대교북단 교차로,37.53247833,127.0850906,자양로5길,자양동
410, 자양나들목,광진구,서울특별시 광진구 자양동 738 자양나들목,37.5297699,127.0748596,자양번영로,자양동
411, 아차산역 3번출구,광진구,서울특별시 광진구 구의동 96 아차산역 3번출구,37.55122375,127.0897064,천호대로132길,구의동
412, 구의삼성쉐르빌 앞,광진구,서울특별시 광진구 구의강변로 106 구의삼성쉐르빌 앞,37.54006195,127.0944977,아차산로65길,구의동
413, 대림아크로리버 앞,광진구,서울특별시 광진구 구의강변로 64 대림아크로리버 앞,37.53657913,127.0929718,강변역로,구의동
414, 중곡 성원아파트 앞,광진구,서울특별시 광진구 동일로 459 중곡 성원APT 앞,37.57125473,127.0798035,답십리로74길,중곡동
415, 구의3동주민센터,광진구,서울특별시 광진구 강변역로 17 구의3동주민센터,37.53784943,127.0921707,아차산로60길,구의동
416, 세종대학교 대양AI센터,광진구,서울특별시 광진구 군자동 98-22,37.55039597,127.0758591,능동로,군자동
417, 구의문주차장 앞,광진구,서울특별시 광진구 능동로 216 구의문주차장 앞,37.54523087,127.0847321,자양로,능동
418, 아차산역4번출구,광진구,서울특별시 광진구 능동로 216 아차산역4번출구,37.55184937,127.0889816,능동로36길,능동
419, 대원중고교 입구(대하빌딩),광진구,서울특별시 광진구 용마산로 120 중앙농협 중곡지점,37.56429291,127.086937,용마산로22길,중곡동
420, 광나루역 3번 출구,광진구,서울특별시 광진구 아차산로 552 광나루역 3번 출구,37.54483032,127.1042633,아차산로73길,광장동
421, 광진청소년수련관,광진구,서울특별시 광진구 구천면로 2 광진청소년수련관,37.54654694,127.1061325,아차산로76가길,광장동
422, 광진광장 교통섬,광진구,서울특별시 광진구 군자동 374-8 광진광장 교통섬,37.54782867,127.0726318,광나루로,군자동
423, 뚝섬 유원지역,광진구,서울특별시 광진구 능동로 10 뚝섬유원지역,37.53268814,127.0674973,능동로,자양동
424, 건국대학교 (입학정보관),광진구,서울특별시 광진구 능동로 120 입학정보관,37.53989029,127.0733643,아차산로39길,화양동
425, 건국대학교 (행정관),광진구,서울특별시 광진구 능동로 120 행정관,37.54277802,127.0753708,능동로16길,화양동
426, 건국대학교 학생회관,광진구,서울특별시 광진구 능동로 120 학생회관,37.54191208,127.0776367,아차산로41가길,화양동
427,자양중앙나들목,광진구,서울특별시 광진구 자양강변길 301 광진구 자양2동 705,37.52858734,127.0778732,뚝섬로52길,자양동
428, 세종대학교(학술정보원),광진구,서울특별시 광진구 능동로 209 세종대학교,37.55137253,127.07444,능동로21길,군자동
429,구의7단지현대아파트,광진구,서울특별시 광진구 구의강변로3가길 33 구의7단지조합현대아파트,37.53680038,127.0908356,강변북로,구의동
430,나루마당,광진구,서울특별시 광진구 구의동 175-1,37.54707336,127.0982895,워커힐로,구의동
431,우성4차아파트,광진구,서울특별시 광진구 자양동 712,37.53507233,127.0761108,자양번영로8길,자양동
432,건대병원후문,광진구,서울특별시 광진구 화양동 4-1,37.53956604,127.0724411,동일로22길,화양동
433,구의역 리버비스타 오피스텔,광진구,서울특별시 광진구 아차산로 417,37.53809738,127.0890198,아차산로,구의동
434,화양 APT(횡단보도 옆),광진구,서울특별시 광진구 화양동 24-33,37.54434967,127.0654068,동일로24길,화양동
435,광나루안전체험관,광진구,서울특별시 광진구 능동 18,37.5513382,127.0767136,능동로,능동
436, 자양사거리(서원빌딩),광진구,서울특별시 광진구 아차산로 360 서원빌딩,37.53657532,127.0825806,아차산로46가길,자양동
437,중곡동 파크웨이빌딩,광진구,서울특별시 광진구 천호대로 611,37.55500793,127.0858154,용마산로1길,중곡동
438,광진 캠퍼스시티,광진구,서울특별시 광진구 화양동 21-62,37.54788971,127.0674515,동일로,화양동
439,광진광장,광진구,서울특별시 광진구 군자동 374-10,37.54747009,127.073967,능동로,군자동
440,화양동 우체국,광진구,서울특별시 광진구 화양동 18-39,37.54798889,127.0695038,동일로30길,화양동
441,군자역 비채온 오피스텔,광진구,서울특별시 광진구 군자동 473-26,37.55771255,127.0772705,면목로,군자동
442,우성식품 앞,광진구,서울특별시 광진구 구의동 201-2,37.54246521,127.0942307,광나루로48길,구의동
443,세종대학교(영실관),광진구,서울특별시 광진구 군자로 114 세종초등학교,37.55237198,127.0735397,군자로,군자동
444, 어린이대공원역 2번출구,광진구,서울특별시 광진구 광진구 능동 463-1,37.54764938,127.074707,능동로,능동
445, 건국대학교 정문 앞,광진구,서울특별시 광진구 광진구 광나루로 416,37.5465126,127.0757141,광나루로22길,화양동
446, 동일로58길 입구,광진구,서울특별시 광진구 광진구 동일로 296,37.55775452,127.0729752,동일로58길,군자동
447, 광진소방서 앞,광진구,서울특별시 광진구 광진구 광나루로 486,37.5450058,127.083374,광나루로32길,구의동
448, 이튼타워리버 2차,광진구,서울특별시 광진구 광진구 능동로 50,37.53520966,127.0690002,능동로6길,자양동
449, 자양한강도서관,광진구,서울특별시 광진구 광진구 뚝섬로52길 58,37.52916336,127.0779877,뚝섬로52길,자양동
450, 동서울우편집중국 앞,광진구,서울특별시 광진구 광진구 자양로 80,37.53470993,127.0844727,자양로,자양동
451, 장로회신학대학교 주기철 기념관,광진구,서울특별시 광진구 광장로5길 25-1 장로회신학대학교,37.54983902,127.1030273,광장로1다길,광장동
452, 중랑천 뚝방길 산책로 입구,광진구,서울특별시 광진구 광진구 동일로 399,37.56628036,127.0774765,긴고랑로1길,중곡동
453, 신자초교입구 교차로,광진구,서울특별시 광진구 뚝섬로 596,37.53298569,127.0757904,자양번영로6길,자양동
454, 홍련봉 공원,광진구,서울특별시 광진구 광진구 천호대로 717-18,37.54896927,127.0935288,천호대로,구의동
455, 자양2동 주민센터,광진구,서울특별시 광진구 자양로3가길 28,37.52879333,127.0846329,자양로3가길,자양동
456,광진구 민방위교육센터,광진구,서울특별시 광진구 구의동 623-1,37.5391922,127.0980148,광나루로56길,구의동
457,군자역4번출구,광진구,광진구 중곡동 341-27,37.55681229,127.0810776,능동로38길,중곡동
458, 휘경2동 주민센터,동대문구,서울특별시 동대문구 한천로 329 휘경2동 주민센터,37.58991241,127.0686798,외대역동로,휘경동
459, 용신동주민센터,동대문구,서울특별시 동대문구 용두동 65-25 용신동주민센터,37.57594681,127.0373612,고산자로29길,용두동
460, 장안동 사거리,동대문구,서울특별시 동대문구 장한로 25길 2 장안동 사거리,37.57217407,127.0713882,답십리로,장안동
461, 신설동역8번출구,동대문구,서울특별시 동대문구 천호대로 26 신설동역9번출구,37.57419968,127.0264969,하정로,신설동
462, 휘경공고앞,동대문구,서울특별시 동대문구 겸재로 21 휘경공고앞,37.58462524,127.0702896,겸재로,휘경동
463, 신이문역 2번출구,동대문구,서울특별시 동대문구 이문동186-1 신이문역 2번출구,37.60271072,127.0678635,신이문로28길,이문동
464, 전농삼성아파트,동대문구,서울특별시 동대문구 전농로 192 전농삼성아파트,37.58131027,127.0553436,전농로,전농동
465, 제기2교,동대문구,서울특별시 동대문구 제기동 122-388,37.58774567,127.037384,제기로9길,제기동
466, 동대문중 교차로,동대문구,서울특별시 동대문구 답십리동 524-1 동대문중 교차로,37.57308578,127.0521622,답십리로,답십리동
467, 시립동부병원 앞 사거리,동대문구,서울특별시 동대문구 용두동 237-10 시립동부병원 앞 사거리,37.57366562,127.0308151,무학로,용두동
468, 신설동역 10번출구 앞,동대문구,서울특별시 동대문구 신설동 92-34 신설동역 10번출구 앞,37.57527161,127.023468,왕산로,신설동
469, 용두동 사거리,동대문구,서울특별시 동대문구 용두동 237-10 용두동 사거리,37.57768631,127.0310135,왕산로,용두동
470, 용두동 래미안허브리츠아파트 앞,동대문구,서울특별시 동대문구 용두동 696-13 용두동 레미안허브리츠아파트 앞,37.57638168,127.0351105,천호대로25길,용두동
471, 서울시립대 앞,동대문구,서울특별시 동대문구 전농동 135-5 시립대 앞,37.58256149,127.0543671,전농로30길,전농동
472, 청솔우성아파트 앞,동대문구,서울특별시 동대문구 답십리동 94-2 청솔우성아파트 앞,37.57420349,127.0576935,전농로9길,답십리동
473, 동대문중학교 옆,동대문구,서울특별시 동대문구 전농동 693-1,37.57489014,127.0535355,답십리로41길,전농동
474, 전농사거리 교통섬,동대문구,서울특별시 동대문구 사가정로 119 전농사거리 교통섬(전농서적 앞),37.57779312,127.0578308,전농로16길,전농동
475, 서울시립대 정문 앞,동대문구,서울특별시 동대문구 서울시립대로 161 서울시립대 정문 앞(시더프라자빌딩 앞),37.58369827,127.0538559,서울시립대로29길,전농동
476, 전농동 동아아파트 앞,동대문구,서울특별시 동대문구 서울시립대로 31 전농동 동아아파트 앞(T-World 앞 보도),37.57418823,127.0458908,서울시립대로2길,전농동
477, 군자교 서측 녹지대,동대문구,서울특별시 동대문구 장한로6길 95 군자교녹지대 동측 앞,37.56115341,127.0709686,천호대로97길,장안동
478, 장안동삼거리 교통섬,동대문구,서울특별시 동대문구 사가정로 240 장안동삼거리 교통섬,37.57863235,127.071907,사가정로,장안동
479, 휘봉고등학교 앞,동대문구,서울특별시 동대문구 한천로 290 휘봉고등학교 앞,37.58681488,127.067543,한천로49길,휘경동
480, 동대문구 보건소,동대문구,서울특별시 동대문구 천호대로 145 동대문구 보건소,37.57485199,127.0403061,고산자로28길,용두동
481, 답십리역 1번출구,동대문구,서울특별시 동대문구 천호대로 269 답십리역 1번출구,37.5681839,127.0512772,천호대로,답십리동
482, 청량리 기업은행 앞,동대문구,서울특별시 동대문구 홍릉로 1 청량리 기업은행 앞,37.58040619,127.0448227,왕산로40길,청량리동
483, 외국어대 정문 앞,동대문구,서울특별시 동대문구 이문로 107 외국어대 정문 앞,37.59601974,127.0598297,이문로28길,이문동
484, 시조사 앞,동대문구,서울특별시 동대문구 이문로1길 11 시조사 앞 (청량고정문 옆),37.58751678,127.0527725,왕산로,청량리동
485, 세종대왕기념관 교차로,동대문구,서울특별시 동대문구 회기로 56 세종대왕기념관 교차로,37.59090042,127.0425873,홍릉로,청량리동
486, KAIST 경영대학 앞,동대문구,서울특별시 동대문구 회기로 85 KAIST 경영대학 앞,37.59161377,127.0457916,회기로10길,청량리동
487, 서울시립대 정보기술관,동대문구,서울특별시 동대문구 한천로43길 12-14 서울시립대 정보기술관,37.58300781,127.0609741,망우로18다길,전농동
488, 서울시립대 후문,동대문구,서울특별시 동대문구 한천로43길 12-14 서울시립대 후문,37.58519745,127.0609512,망우로18다길,전농동
489, 동대문경찰서 교차로,동대문구,서울특별시 동대문구 홍릉로 26-1 거리가게,37.58255005,127.0446014,약령시로,청량리동
490, 용두역 4번출구,동대문구,서울특별시 동대문구 청계천로 563 용두역 4번출구,37.57375336,127.0385361,고산자로,용두동
491, 신답역 사거리,동대문구,서울특별시 동대문구 천호대로 231,37.57035446,127.0484314,천호대로65길,답십리동
492, 동대문구민체육센터 (육교아래),동대문구,서울특별시 동대문구 장안동 473-6,37.56697083,127.074295,중랑천서자전거길,장안동
493, 장한평역 1번출구,동대문구,서울특별시 동대문구 장한로 3-1 구두수선대,37.56196594,127.0645065,천호대로,장안동
494, 신이문역 1번출구,동대문구,서울특별시 동대문구 신이문로 44 신이문역 1번출구,37.60279846,127.0672684,신이문로28길,이문동
495, 장안동위더스빌옆,동대문구,서울특별시 동대문구 한천로 42 장안동위더스빌옆,37.56669998,127.0624237,한천로,답십리동
496, 중랑교사거리,동대문구,서울특별시 동대문구 망우로 131 중랑교사거리,37.59153366,127.0677414,외대역동로,휘경동
497, 답십리 래미안엘파인아파트 입구,동대문구,서울특별시 동대문구 사가정로 190 답십리 래미안엘파인아파트 입구,37.57653046,127.0659409,한천로37길,전농동
498, 전농동 텃골공원,동대문구,서울특별시 동대문구 사가정로 65 전농동 텃골공원,37.57762146,127.0521088,전농로23길,전농동
499, 영휘원 교차로,동대문구,서울특별시 동대문구 홍릉로 78-1 영휘원 교차로,37.58723831,127.0431366,제기로,청량리동
500, 동대문롯데캐슬아파트 앞,동대문구,서울특별시 동대문구 전농동 695-5,37.57551956,127.0487747,답십리로30길,전농동
501, 제기역1번출구,동대문구,서울특별시 동대문구 왕산로 87 제기역1번출구,37.57835007,127.0333862,왕산로19나길,제기동
502, 동의보감타워,동대문구,서울특별시 동대문구 왕산로 128 동의보감타워,37.57799911,127.0376282,고산자로33길,용두동
503, 경희대학교 청운관,동대문구,서울특별시 동대문구 경희대로 23 경희의료원,37.59460068,127.0519714,경희대로,회기동
504, 외대앞역 4번출구,동대문구,서울특별시 동대문구 휘경로14가길 31 외대앞역 4번출구,37.59489059,127.0630264,휘경로,휘경동
505, 서울시립대 건설공학관,동대문구,서울특별시 동대문구 서울시립대로 163 서울시립대학교,37.58412933,127.0579376,망우로12라길,전농동
506,이문동 쌍용아파트 정문,동대문구,서울특별시 동대문구 한천로58길 47 쌍용아파트,37.59960556,127.0686417,한천로58길,이문동
507,이문대성유니드아파트 앞,동대문구,서울특별시 동대문구 한천로58길 151 이문동대성유니드아파트,37.60362244,127.0708313,한천로58길,이문동
508,청량차도 육교 밑,동대문구,서울특별시 동대문구 청량리동 49,37.58659363,127.0469971,제기로,청량리동
509,서울축산농협(장안지점),동대문구,서울특별시 동대문구 장한로 79,37.56799698,127.068779,한천로24길,장안동
510,청계한신휴플러스앞 삼거리,동대문구,서울특별시 동대문구 서울시립대로 14 청계한신휴플러스,37.57214737,127.0446091,서울시립대로,답십리동
511,삼육서울병원 버스정류장,동대문구,서울특별시 동대문구 망우로 74,37.58968735,127.061409,망우로16길,휘경동
512,대광빌딩,동대문구,서울특별시 동대문구 신설동 81-197,37.57734299,127.0233765,보문로,신설동
513,대광고등학교,동대문구,서울특별시 동대문구 안암로 6 대광중고등학교,37.57875061,127.024025,안암로6길,신설동
514,안암골벽산아파트(후문),동대문구,서울특별시 동대문구 약령시로 25 안암골 벽산아파트,37.58407974,127.0310364,안암로,제기동
515,고대앞사거리 교통섬,동대문구,서울특별시 성북구 안암동5가 40-11,37.58655167,127.0331421,안암로,안암동5가
516,FITI시험연구원 앞,동대문구,서울특별시 동대문구 제기동 891-2,37.58143234,127.0354767,정릉천동로,제기동
517,청량리역 4번 5번출구 사이,동대문구,서울특별시 동대문구 왕산로 202-1 가로판매대,37.5801506,127.0457993,왕산로40길,전농동
518,장안힐스테이트(아) 앞,동대문구,서울특별시 동대문구 장안벚꽃로1길 7 장안 힐스테이트,37.57655716,127.0743103,답십리로69길,장안동
519,전농SK아파트 앞,동대문구,서울특별시 동대문구 사가정로 150,37.57787704,127.0616837,사가정로,전농동
520,꿈마루어린이도서관 앞,동대문구,서울특별시 동대문구 이문동 346-131,37.59238434,127.0574112,이문로,이문동
521,서울특별시 동부교육지원청(육교),동대문구,서울특별시 동대문구 전농로 168 서울동부교육지원청,37.5798378,127.0563736,전농로29길,전농동
522, 휘경1동주민센터 앞,동대문구,서울특별시 동대문구 외대역동로6길 3,37.59286499,127.0655594,외대역동로5길,휘경동
523, 휘경sk뷰아파트 앞,동대문구,서울특별시 동대문구 휘경로 71 맞은편,37.59383774,127.0678177,휘경로,휘경동
524, 외대앞역 교차로,동대문구,서울특별시 동대문구 외대역동로 67 맞은편,37.59436417,127.0645981,휘경로,휘경동
525, 서울교통공사사거리 교통섬,동대문구,서울특별시 동대문구 천호대로 343,37.56324005,127.057991,천호대로,답십리동
526, 장안동근린공원 입구,동대문구,서울특별시 동대문구 장한로 191 동대문구청소년독서실,37.57739639,127.0718536,사가정로,장안동
527, 답십리파크자이아파트 앞,동대문구,서울특별시 동대문구 답십리로56길 124,37.5676918,127.0578919,전농로4길,답십리동
528, 용두롯데캐슬리치아파트 앞,동대문구,서울특별시 동대문구 용두동 150-32,37.57958603,127.0302429,무학로,용두동
529, 한국국방연구원 앞,동대문구,서울특별시 동대문구 회기로 37 한국국방연구원,37.59139633,127.0402985,회기로,제기동
530, 휘경여중고삼거리,동대문구,서울특별시 동대문구 한천로 264 맞은편,37.58392334,127.0682755,한천로47길,휘경동
531, 이문e편한세상아파트 앞,동대문구,서울특별시 동대문구 한천로63길 10 이문e편한세상아파트,37.60460281,127.0669251,한천로63길,이문동
532, 휘경119안전센터 앞,동대문구,서울특별시 동대문구 망우로 114,37.59087372,127.065361,망우로,휘경동
533, 서울문화재단 앞,동대문구,서울특별시 동대문구 청계천로 517,37.57130051,127.0336227,청계천로,용두동
534, 청계9가교차로 앞,동대문구,서울특별시 동대문구 청계천로 471,37.57014847,127.0299225,무학로15길,용두동
535, 배봉초교 교차로,동대문구,서울특별시 동대문구 사가정로 200,37.57846832,127.0668945,한천로33가길,전농동
536, 회기역 2-①번출구,동대문구,서울특별시 동대문구 휘경동 267-10,37.58945084,127.0595627,망우로21길,휘경동
537, 종암초등학교 뒤(새울센스빌),동대문구,서울특별시 동대문구 약령시로 20 새울센스빌,37.58265686,127.0319672,약령시로2길,제기동
538, 베네스트 오피스텔 앞,동대문구,서울특별시 동대문구 무학로 134-2 구두수선대,37.57817078,127.0317001,한빛로,용두동
539, 극동늘푸른아파트,중랑구,서울특별시 중랑구 동일로 941 중랑구 묵동 189-2,37.61473846,127.0763626,동일로,묵동
540, 금란주차장 앞,중랑구,서울특별시 중랑구 망우로 448 금란주차장 앞,37.60007095,127.1023331,용마산로116길,망우동
541, 중화빌딩 앞 (동부시장),중랑구,서울특별시 중랑구 망우로 211 중화빌딩,37.59424973,127.0765762,중랑역로,중화동
542, 동일로 지하차도,중랑구,서울특별시 중랑구 망우로 233 중랑구 중화동 211-3,37.59529877,127.0800324,동일로,중화동
543, 망우역 1번출구,중랑구,서울특별시 중랑구 망우로55길 11-10 망우역 1번출구,37.59909821,127.0929489,망우로55길,상봉동
544, 망우청소년수련관,중랑구,서울특별시 중랑구 송림길 156 망우청소년수련관,37.60625076,127.1082687,양원역로10길,망우동
545, 먹골역 1번출구 뒤,중랑구,서울특별시 중랑구 공릉로 12 중랑구 묵동 189-4,37.61151123,127.0778885,공릉로,묵동
546, 먹골역 6번출구 앞,중랑구,서울특별시 중랑구 동일로 지하 901 먹골역 6번출구 앞,37.61072159,127.0774765,동일로159길,묵동
547, 면목 대원칸타빌아파트,중랑구,서울특별시 중랑구 용마산로 285 581 번지,37.57778168,127.0901871,면목로40길,면목동
548, 상봉시장앞 교차로 한성빌딩 앞,중랑구,서울특별시 중랑구 면목로 456 중랑구 면목동 282-4,37.59254074,127.0867386,봉우재로,면목동
549, 봉화산역 5번출구 뒤,중랑구,서울특별시 중랑구 신내로 지하 232 봉화산역 5번출구 뒤,37.61756134,127.0903091,신내로17길,묵동
550, 사가정역 2번출구,중랑구,서울특별시 중랑구 면목로 325,37.58098984,127.0882416,면목로45길,면목동
551, 상봉역 3번출구,중랑구,서울특별시 중랑구 면목로 480 중랑구 상봉동 160-22,37.59521866,127.0859985,면목로94길,상봉동
552, 새솔초등학교,중랑구,서울특별시 중랑구 신내역로1길 164 새솔초등학교,37.61743927,127.1090164,신내역로1길,신내동
553, 신내어울공원 앞,중랑구,서울특별시 중랑구 신내로16길 33 신내동 의료안심주택,37.61394501,127.097702,신내로18길,신내동
554, 신내역 4번출구,중랑구,서울특별시 중랑구 신내로 지하 232 신내역 4번출구,37.61246109,127.1033783,용마산로136길,망우동
555, 신내우디안아파트 1단지,중랑구,서울특별시 중랑구 신내역로 213 신내우디안아파트 1단지,37.62009811,127.1064606,용마산로139나길,신내동
556, 양원역 2번출구,중랑구,서울특별시 중랑구 송림길 147 양원역 2번출구,37.6063118,127.1077423,양원역로,망우동
557, 용마문화복지센터,중랑구,서울특별시 중랑구 용마산로86길 9-27 용마문화복지센터,37.58745956,127.0959702,용마산로86길,면목동
558, 면목도시개발아파트 1동 앞,중랑구,서울특별시 중랑구 용마산로 지하 227 면목도시개발아파트 1동 앞,37.57358932,127.0868225,용마산로45길,면목동
559, 용마산역 1번출구,중랑구,서울특별시 중랑구 용마산로 지하 227 중랑구 면목동 1381,37.57429886,127.0869141,면목로28길,면목동
560, 원묵고등학교,중랑구,서울특별시 중랑구 숙선옹주로 66 중랑구 묵동 20-3,37.61602402,127.085968,숙선옹주로,묵동
561, 장안중학교,중랑구,서울특별시 중랑구 동일로 778 동일로 778,37.59995651,127.0800018,동일로,중화동
562, 중랑구청,중랑구,서울특별시 중랑구 봉화산로 179 중랑구 신내동 662-1,37.60615158,127.092598,봉화산로47길,신내동
563, 중랑구청 사거리,중랑구,서울특별시 중랑구 봉화산로 194 중랑구 신내동 561,37.60649872,127.0954514,봉화산로52길,신내동
564, 중화역 2번출구,중랑구,서울특별시 중랑구 동일로 지하 797 중랑구 중화동 50-3,37.60207748,127.0795822,동일로136길,중화동
565, 능산삼거리,중랑구,서울특별시 중랑구 용마산로 644 능산삼거리,37.60868073,127.1007919,용마산로,신내동
566, 동원베네스트 건물 앞,중랑구,서울특별시 중랑구 용마산로 640,37.60810089,127.101181,용마산로128길,신내동
567, 늘푸른공원 앞,중랑구,서울특별시 중랑구 동일로 594 늘푸른공원 앞,37.5834198,127.0799255,사가정로29길,면목동
568, 홈플러스 신내점 앞,중랑구,서울특별시 중랑구 신내로 지하 232 홈플러스 신내점 앞,37.61616898,127.093483,신내로17길,신내동
569, 면목2동 사거리,중랑구,서울특별시 중랑구 동일로 628 하나은행,37.58637238,127.0800705,동일로,면목동
570, 신내능말공원,중랑구,서울특별시 중랑구 신내역로 165 신내 데시앙포레,37.61670685,127.11026,신내역로1길,신내동
571, 중랑구 중소기업 창업센터,중랑구,서울특별시 중화동 50-8 (구)신한은행 중랑교지점,37.59859085,127.0798187,동일로,중화동
572, 면목4치안센터,중랑구,서울특별시 면목동 646-4 면목4치안센터,37.57402802,127.0805435,면목로27길,면목동
573, 용마지구대,중랑구,서울특별시 면목동 197-5 용마지구대,37.5799408,127.0793991,동일로,면목동
574, 중랑전화국 교차로,중랑구,서울특별시 중랑구 면목동 282-8 중랑전화국 교차로,37.59130096,127.0803299,봉우재로20길,면목동
575, 면목역 3번출구,중랑구,서울특별시 면목동 120-2 면목역 3번출구,37.58890152,127.0872803,면목로73길,면목동
576, 코스트코 상봉점,중랑구,서울특별시 상봉동 160-3 코스트코 상봉점,37.59732056,127.089798,망우로52길,상봉동
577, 상봉역 1번출구,중랑구,서울특별시 중랑구 망우로 297 상봉역 1번출구,37.59655762,127.0858383,면목로96길,상봉동
578, 화랑대역 7번출구,중랑구,서울특별시 중랑구 묵동 6-3,37.61963654,127.0850449,화랑로,묵동
579, 중랑세무서,중랑구,서울특별시 중랑구 망우로 176 중랑세무서,37.59275818,127.07267,중랑천로12길,상봉동
580, 겸재교 진입부,중랑구,서울특별시 중랑구 겸재로 68 겸재교진입부,37.58565521,127.0750504,사가정로,면목동
581, 중랑캠핑숲,중랑구,서울특별시 중랑구 송림길 172 중랑캠핑숲,37.60460281,127.1092529,망우로87길,망우동
582, 한국전력공사(동대문 중랑지사),중랑구,서울특별시 중랑구 동일로 862 한국전력공사(동대문 중랑지사),37.6073494,127.0785904,동일로152길,묵동
583, 상봉역 2번 출구,중랑구,서울특별시 중랑구 망우로 297 상봉역 2번 출구,37.59632874,127.0858994,면목로96길,상봉동
584, 상아빌딩(우림시장 교차로),중랑구,서울특별시 중랑구 용마산로 494 상아빌딩(우림시장 교차로),37.59511185,127.1003265,용마공원로,망우동
585, 동원사거리,중랑구,서울특별시 중랑구 겸재로 229 동원사거리,37.58975983,127.0932388,상봉로11길,면목동
586, 상봉터미널2,중랑구,서울특별시 중랑구 용마산로115길 127 용마산로115길 127,37.59733963,127.0930862,망우로,망우동
587, 용마한신아파트사거리,중랑구,서울특별시 중랑구 용마산로 313 용마한신아파트사거리,37.58034897,127.0926514,사가정로,면목동
588,동양엔파트 앞,중랑구,서울특별시 중랑구 망우로 203 중화동주상복합,37.593853,127.0750732,망우로,중화동
589,동부시장 북문 앞,중랑구,서울특별시 중랑구 망우로 214 우도빌딩,37.59386826,127.0765228,망우로32길,상봉동
590,중랑구민회관,중랑구,서울특별시 중랑구 면목로 238 중랑구민회관,37.57407761,127.0850067,면목로,면목동
591,중화역 4번출구,중랑구,서울특별시 중랑구 동일로 815,37.60305405,127.0790024,동일로,중화동
592,중랑공영차고지 옆,중랑구,서울특별시 중랑구 신내동 63-8,37.61314774,127.1051483,신내역로1가길,신내동
593,두산대림아파트 삼거리,중랑구,서울특별시 중랑구 신내로23길 9 묵동근생빌딩,37.61882401,127.0875702,숙선옹주로,묵동
594,sk신내 주유소앞(용마산로),중랑구,서울특별시 중랑구 신내동 353-2,37.61362076,127.1011505,신내로18길,신내동
595,먹골역 7번 출구,중랑구,서울특별시 중랑구 동일로 901 먹골역,37.6114769,127.0773926,동일로161길,묵동
596,먹골역 4번출구,중랑구,서울특별시 중랑구 동일로 890,37.60982132,127.0781326,동일로,묵동
597,중화동 우리은행 앞,중랑구,서울특별시 중랑구 동일로 837 우리은행,37.60520172,127.0785828,동일로,중화동
598,동양쇼핑 정류소 앞,중랑구,서울특별시 중랑구 묵동 190-2,37.61535263,127.0784912,숙선옹주로,묵동
599,영성빌딩(PAT),중랑구,서울특별시 중랑구 동일로 824 신성빌딩,37.60408401,127.0792313,동일로138길,중화동
600,중랑역 1번 출구(중화문화복지센터),중랑구,서울특별시 중랑구 중화동 321-129,37.59489059,127.0749512,중랑역로3길,중화동
601,서울중랑우체국,중랑구,서울특별시 중랑구 망우로 271 서울중랑우체국,37.59581375,127.08284,망우로,상봉동
602,면목삼익아파트 앞,중랑구,서울특별시 중랑구 동일로 501 면목삼익아파트,37.57598495,127.0796051,동일로,면목동
603,홈플러스 상봉점 앞,중랑구,서울특별시 중랑구 상봉동 500-1,37.59832764,127.0922699,망우로55길,상봉동
604,면목 홈플러스 2,중랑구,서울특별시 중랑구 사가정로 326 중랑구 실향민협의회,37.58105469,127.0820923,사가정로42길,면목동
605, 용마지구대 옆,중랑구,서울특별시 중랑구 동일로 566 중랑경찰서용마지구대,37.58111191,127.080101,동일로,면목동
606, 새우개마을,중랑구,서울특별시 중랑구 신내동278-50,37.61571121,127.1010437,용마산로139가길,신내동
607, 상봉2동 주민센터 앞,중랑구,서울특별시 중랑구 상봉동 126-42,37.59268951,127.0802841,봉우재로19길,상봉동
608, 동서울농협 앞,중랑구,서울특별시 중랑구 망우로 290,37.59596252,127.0847778,면목로95길,상봉동
609, 라코지스테이 앞,중랑구,서울특별시 중랑구 망우로232,37.59432602,127.0784607,망우로,상봉동
610, 신내2동 주민센터 앞,중랑구,서울특별시 중랑구 봉화산로 190,37.60641098,127.0940476,봉화산로50길,신내동
611," 동성1,2차 아파트 앞",중랑구,서울특별시 중랑구 신내로 126 동성아파트,37.61022568,127.096283,봉화산로53길,신내동
612, 한양수자인아파트 앞,중랑구,서울특별시 중랑구 면목동 1085-1,37.58032227,127.0941544,사가정로72길,면목동
613, 묵동 이마트 앞,중랑구,서울특별시 중랑구 묵동 170-45,37.6132164,127.0773468,동일로,묵동
614, 망우지구대,중랑구,서울특별시 중랑구 망우로 400,37.59877777,127.0963898,용마산로115길,망우동
615, 중랑데시앙플렉스 앞,중랑구,서울 중랑구 신내역로3길 40-36,37.61755371,127.1039963,경춘북로,신내동
616, 면목동 새싹어린이공원 앞,중랑구,서울특별시 중랑구 동일로92길 57,37.58333206,127.0835495,사가정로39길,면목동
617, 망우역 2번 출구,중랑구,서울특별시 중랑구 중랑구 망우로55길 11-10(상봉동),37.60025406,127.091713,상봉중앙로1다길,상봉동
618, 방정환교육지원센터 옆,중랑구,서울특별시 중랑구 중랑구 망우로 325(상봉동),37.59780884,127.0884476,동일로120길,상봉동
619, 신내동 벽산아파트 후문 앞,중랑구,서울특별시 중랑구 용마산로125길 50 벽산아파트,37.6030426,127.100502,용마산로122길,신내동
620, 신내동 한살림 중랑지구 앞,중랑구,서울특별시 중랑구 신내동 574-1,37.60428619,127.0973663,신내로10길,신내동
621, 신내동 한살림 중랑지구 북축,중랑구,서울특별시 중랑구 신내동 574-1,37.60446167,127.0974121,용마산로125가길,신내동
622, 상봉신협 앞,중랑구,서울특별시 중랑구 봉우재로41길 6 청운명가프라임,37.59354401,127.0897903,봉우재로,상봉동
623, 홈플러스 면목점,중랑구,서울특별시 중랑구 동일로 540,37.57984543,127.0824204,사가정로42길,면목동
624, 신내SK V1센터 앞,중랑구,서울특별시 중랑구 중랑구 신내역로 111,37.6127243,127.11306,구리포천고속도로,신내동
625, 용마복지센터 앞,중랑구,서울특별시 중랑구 중랑구 용마산로 393,37.58686447,127.0953217,용마산로,면목동
626, 망우동 본죽 앞,중랑구,서울특별시 중랑구 망우로 467,37.60064316,127.1040497,망우로,망우동
627, 양원역 1번 출구,중랑구,서울특별시 중랑구 망우동 253-18,37.60655212,127.1070862,양원역로14나길,망우동
628, 양원지구 힐데스하임 앞,중랑구,서울특별시 중랑구 봉화산로 301,37.60924149,127.1062088,용마산로136가길,망우동
629,동원사거리 행복오피스텔 앞,중랑구,서울특별시 중랑구 겸재로 240 행복오피스텔,37.58973694,127.0941925,겸재로,면목동
630, 서울시 북부병원 앞,중랑구,서울특별시 중랑구 양원역로 38 서울시북부병원 및 시립중랑노인전문요양원,37.60405731,127.107254,양원역로8길,망우동
631, 신내 우디안 111동 앞,중랑구,서울특별시 중랑구 신내역로1길 85 신내우디안1단지,37.61727142,127.1085434,신내역로1길,신내동
632,중화수경공원,중랑구,중랑구 중화동 381-3,37.60318375,127.0741348,중랑천로,중화동
633, 한성대입구역6번출구 뒤,성북구,서울특별시 성북구 동소문로 1 한성대입구역6번출구 뒤,37.58876419,127.0063095,성북로2길,동소문동1가
634, 돈암초교 입구,성북구,서울특별시 성북구 동소문로13길 38 돈암초교,37.59169388,127.012497,동소문로,동소문동4가
635, 만해공원,성북구,서울특별시 성북구 성북로 132-1 만해공원,37.59440231,126.9923096,성북로29길,성북동
636, 성북구청,성북구,서울특별시 성북구 보문로 168 성북구청,37.58932877,127.0164337,삼선교로24길,삼선동5가
637, 한성대입구역2번출구,성북구,서울특별시 성북구 동소문로 2 성북구 동소문동2가 2-3,37.58844757,127.0067062,동소문로,동소문동2가
638, 안암로터리 버스정류장 앞,성북구,서울특별시 성북구 안암로 69 안암로터리 버스정류장,37.58259201,127.0289764,안암로9가길,안암동5가
639, 정릉꿈에그린1단지 201동 앞,성북구,서울특별시 성북구 아리랑로19길 20 성북구 정릉동 966-62,37.60243988,127.0116882,아리랑로19길,정릉동
640, 고려사대부속중고 정문,성북구,서울특별시 성북구 보국문로29길 23 성북구 정릉동 966-1,37.60776138,127.0032806,정릉로,정릉동
641, 고려사대부속중고 건너편,성북구,서울특별시 성북구 보국문로29길 23 성북구 정릉동 966-1,37.60726166,127.0028381,정릉로12길,정릉동
642, 길음역 3번출구 뒤,성북구,서울특별시 성북구 동소문로 248 동소문로248,37.60308456,127.0247879,삼양로,길음동
643, 종암사거리 분수대,성북구,서울특별시 성북구 종암로 147 성북구 하월곡동 104-134,37.6030426,127.0332718,화랑로,종암동
644, 국민은행 종암동지점 앞,성북구,서울특별시 성북구 종암로3길 37-2 성북구 종암동 12-33,37.59328842,127.0366669,종암로,종암동
645, 래미안라센트아파트 103동 앞,성북구,서울특별시 성북구 종암로3길 37-2 성북구 종암동 12-33,37.59806824,127.0392761,월곡로7길,종암동
646, 월곡역 입구 육교 밑,성북구,서울특별시 성북구 월곡로 지하 107 성북구 종암동 113-10,37.60043335,127.0402069,월곡로13길,종암동
647, 상월곡역 4번출구,성북구,서울특별시 성북구 화랑로 148 성북구 상월곡동 산7-1,37.60580826,127.0477371,화랑로17길,상월곡동
648, 상월곡역 1번출구,성북구,서울특별시 성북구 화랑로 지하 157 성북구 상월곡동 35-9,37.60606766,127.0473175,화랑로17길,상월곡동
649, 상월곡역 3번출구,성북구,서울특별시 성북구 화랑로 지하 157 성북구 상월곡동 26-1,37.60734177,127.0506821,화랑로22길,상월곡동
650, 월곡역 3번출구,성북구,서울특별시 성북구 월곡로 지하 107 성북구 하월곡동 37-4,37.6026268,127.0416336,화랑로11길,하월곡동
651, 석계역 5번출구 건너편,성북구,서울특별시 노원구 화랑로 지하 347-1 성북구 석관동 134-4,37.61355591,127.0660934,한천로66길,석관동
652, 석관초등학교 앞,성북구,서울특별시 성북구 돌곶이로22길 21 성북구 석관동 202-3,37.61052322,127.0597992,돌곶이로22길,석관동
653, 석관동주민센터 앞,성북구,서울특별시 성북구 화랑로 296 성북구 석관동 384-2,37.61299896,127.0613098,화랑로40길,석관동
654, 성북3교 위,성북구,서울특별시 성북구 보문로 192 성북3교 위,37.59125137,127.0140076,보문로,삼선동4가
655, 돈암성당 옆,성북구,서울특별시 성북구 인촌로7길 120 돈암성당 옆,37.59038162,127.0171356,고려대로7길,동선동2가
656, 용문2교 옆,성북구,서울특별시 성북구 인촌로7길 24 용문2교 옆,37.5868988,127.020752,보문로26길,안암동2가
657, 삼성전자서비스 성북센터,성북구,서울특별시 성북구 월계로 28 삼성전자서비스 성북센터,37.610569,127.0335083,월계로,하월곡동
658, 광운초등학교 앞,성북구,서울특별시 성북구 장위동 134-27,37.61784363,127.0550003,돌곶이로32길,장위동
659, 성북쉼터 앞,성북구,서울특별시 성북구 성북로21길 32 성북쉼터 앞,37.59261703,126.9979324,혜화로,성북동
660, 한성대7번출구 앞,성북구,서울특별시 성북구 동소문로 11 한성대7번출구 앞,37.58924866,127.0073776,성북로2길,동소문동1가
661, 아리랑시네센터 앞,성북구,서울특별시 성북구 아리랑로 82 아리랑시네센터 앞,37.60028839,127.0137024,아리랑로12길,돈암동
662, 길음8골어린이공원 옆,성북구,서울특별시 성북구 길음로13길 22 길음8골어린이공원 옆,37.60897827,127.0202484,길음로,길음동
663, 길음래미안아파트817동 상가 앞,성북구,서울특별시 성북구 길음로 33 길음래미안아파트817동 상가 앞,37.60710526,127.0214996,삼양로9길,길음동
664, 성북제일새마을금고 본점 앞,성북구,서울특별시 성북구 길음로 20 성북제일새마을금고 본점 앞,37.60475159,127.0227585,길음로,길음동
665, 월계2교 버스정류장 앞,성북구,서울특별시 성북구 한천로101길 18 월계2교 버스정유장 앞,37.62382889,127.0502014,우이천동자전거길,장위동
666, 안암2교 옆,성북구,서울특별시 성북구 안암로 17 SK제삼주유소 앞,37.5794487,127.0241928,안암로5길,안암동4가
667, e 편한세상 보문아파트 내,성북구,서울특별시 성북구 낙산길 255 e 편한세상 보문아파트 내,37.58388138,127.0170975,지봉로,보문동3가
668, 금호어울림센터힐 내,성북구,서울특별시 성북구 동소문로34길 73 금호어울림센터힐 내,37.60083008,127.0235519,동소문로,돈암동
669, 고려대학교 2번출구,성북구,서울특별시 성북구 종암로 지하 1 고려대학교 2번출구,37.5907135,127.0361939,종암로,종암동
670, 보문2교,성북구,서울특별시 성북구 보문로30길 29 보문2교,37.58869934,127.0189133,고려대로5길,안암동1가
671, 북한산보국문역,성북구,서울특별시 성북구 보국문로 91 북한산보국문역,37.61207199,127.0081329,보국문로,정릉동
672, 정릉도서관 앞,성북구,서울특별시 성북구 보국문로 7-10 정릉도서관 앞,37.60478973,127.010582,정릉로26길,정릉동
673, 장위뉴타운 꿈에 숲 코오롱 하늘채 앞,성북구,서울특별시 성북구 월계로 172 장위뉴타운 꿈에 숲 코오롱 하늘채 앞,37.61980057,127.0450974,월계로,장위동
674, 정릉역,성북구,서울특별시 성북구 정릉로 272 정릉역,37.60309601,127.013504,정릉로,정릉동
675, 홍익중고 입구,성북구,서울특별시 성북구 성북동 142-1,37.59296799,127.0022354,성북로,성북동
676, 보문역6번출구 앞,성북구,서울특별시 성북구 보문로 112-2,37.58519745,127.0196686,고려대로,보문동1가
677, 보문4교 인근,성북구,서울특별시 성북구 보문로22길 28 보문4교 인근,37.58375168,127.0219498,보문로22길,안암동3가
678, 성북동 치안센터 앞,성북구,서울특별시 성북구 성북로 25 성북동 치안센터 앞,37.59017181,127.0040894,성북로7길,성북동1가
679, 선잠단지 앞,성북구,서울특별시 성북구 성북로 102-10 선잠단지 앞,37.5933609,126.9990921,성북로,성북동
680, 일신초등학교 옆,성북구,서울특별시 성북구 월곡로 74 일신초등학교 옆,37.59972,127.0403824,월곡로,종암동
681, 길음문화복합미디어센터,성북구,서울특별시 성북구 길음로7길 6 길음뉴타운9단지래미안 상가,37.60404587,127.0226593,길음로7길,길음동
682, 성신여대입구 교차로,성북구,서울특별시 성북구 보문로34길 87 성신여대입구 교차로,37.59148026,127.0201035,보문로34길,동선동3가
683, 복자사랑 피정의 집,성북구,서울특별시 성북구 성북로 132-4 복자사랑 피정의 집,37.59453964,126.9952087,성북로,성북동
684, KEB은행 고대점,성북구,서울특별시 성북구 인촌로 113 KEB은행 고대점,37.58644485,127.031601,고려대로,안암동5가
685, 성북구보건소 건너편,성북구,서울특별시 성북구 화랑로 63 성북구보건소 건너편,37.60229111,127.0389786,화랑로5길,종암동
686, 생명의 전화 종합복지관 앞 교차로,성북구,서울특별시 성북구 오패산로 21 생명의 전화 종합복지관 앞 교차로,37.60390854,127.0373764,오패산로,하월곡동
687, 한국과학기술연구원 중문,성북구,서울특별시 성북구 화랑로14길 5 한국과학기술연구원 정문,37.59732056,127.043808,회기로5길,하월곡동
688, 한국과학기술연구원 북문,성북구,서울특별시 성북구 화랑로14길 5 한국과학기술연구원 후문,37.60395813,127.0453415,화랑로,하월곡동
689,길음뉴타운푸르지오아파트 3단지,성북구,서울특별시 성북구 길음로13길 39 길음뉴타운,37.60935974,127.0181732,길음로13길,길음동
690,월곡역 5번출구 앞,성북구,서울특별시 성북구 하월곡동 96-248,37.60108566,127.0412369,월곡로14길,하월곡동
691,석계역 4번출구 뒤,성북구,서울특별시 성북구 석관동 375-97,37.61478424,127.0670013,화랑로48길,석관동
692,래미안월곡아파트 입구,성북구,서울특별시 성북구 하월곡동 225-5,37.60866547,127.0362701,오패산로,하월곡동
693,성신여대입구역 5번출구,성북구,서울특별시 성북구 동소문동6가 140-5,37.59282684,127.0162888,아리랑로,동소문동6가
694,성신여대입구역 3번출구 앞,성북구,서울특별시 성북구 동소문로 98 제일은행,37.59236526,127.0162888,동소문로20길,동소문동5가
695,동선고가차도 초입,성북구,서울특별시 성북구 동소문로 130,37.59415817,127.0189667,동소문로25길,동선동1가
696, 돈암초교입구 버스정류장(한성대입구역 방면),성북구,서울특별시 성북구 동소문동3가 66-1,37.59088135,127.0117035,보문로39길,동소문동3가
697,석관래미안아트리치,성북구,서울특별시 성북구 석관동 323-2,37.60646057,127.0616226,돌곶이로,석관동
698,성북청소년센터,성북구,서울특별시 성북구 장위동 322-8,37.61701202,127.0561676,장위로,장위동
699,돈암삼성풍림아파트,성북구,서울특별시 성북구 돈암동 632-6,37.5970993,127.0226288,동소문로32길,돈암동
700,돈암육교 하단,성북구,서울특별시 성북구 돈암동 51-10,37.59802628,127.0214081,동소문로,돈암동
701,길음뉴타운 래미안9단지,성북구,서울특별시 성북구 정릉로 243,37.60241699,127.0197144,정릉로38나길,정릉동
702,래미안장위포레카운티(102동),성북구,서울특별시 성북구 장위동 143-12,37.61817932,127.0518341,장월로38길,장위동
703,래미안장위퍼스트하이(513동),성북구,서울특별시 성북구 장위동 201-6,37.61844254,127.0514526,장월로38길,장위동
704, 장곡초등학교 앞,성북구,서울특별시 성북구 장위동 237-132,37.61745453,127.0484467,돌곶이로,장위동
705, 돌곶이역 앞,성북구,서울특별시 성북구 화랑로 지하 243,37.61131287,127.0575943,화랑로,장위동
706, 동산어린이공원 앞,성북구,서울특별시 성북구 성북구 하월곡동 96-78,37.60623932,127.0346603,종암로36나길,하월곡동
707, 안암역 3번 출구,성북구,서울특별시 성북구 고려대로 104-1,37.58625031,127.0309525,고려대로,안암동5가
708, 미아초교버스승강장,성북구,서울특별시 성북구 성북구 길음동 1261-535,37.61207962,127.0219803,삼양로14길,길음동
709, 성북청소년문화의집,성북구,서울특별시 성북구 성북구 솔샘로 107,37.61566925,127.0087662,솔샘로25길,정릉동
710, 종암동 동덕여대 제2생활관 앞,성북구,서울특별시 성북구 성북구 종암로 123,37.60108948,127.0333176,종암로,종암동
711, 성북구 한예종 캠퍼스 본관,성북구,서울특별시 성북구 화랑로32길 146-37 한국예술종합학교,37.60665131,127.0561829,화랑로32라길,석관동
712, 성북구 한예종 캠퍼스 별관,성북구,서울특별시 성북구 화랑로32길 146-20 문화재청의릉지구관리소,37.60289764,127.0584793,화랑로32길,석관동
713, 롯데캐슬클라시아 입구 앞,성북구,서울특별시 성북구 길음동 1289-3,37.60668945,127.0258942,동소문로41길,길음동
714," 미아역 3번,4번 출구 사이",강북구,"서울특별시 강북구 도봉로 196 미아역 3,4번 출구 사이",37.62607956,127.0264816,도봉로,미아동
715, 강북구청사거리(수유역 8번출구),강북구,서울특별시 강북구 도봉로 355,37.63926315,127.0267258,도봉로,수유동
716, 삼양시장오거리,강북구,서울특별시 강북구 삼양로 234 다이소 삼양시장점,37.62415695,127.0186234,삼양로,미아동
717, 강북문화예술회관,강북구,서울특별시 강북구 삼각산로 85 강북문화예술회관,37.64032745,127.0133591,삼각산로,수유동
718, 서울북부수도사업소,강북구,서울특별시 강북구 한천로 935 번동 386-17,37.63437653,127.0357513,한천로,번동
719, 번동주공5단지 관리사무소 앞,강북구,서울특별시 강북구 오현로25마길 27 번동 230,37.63371658,127.0355148,한천로,번동
720, 번동 금호어울림아파트102동앞,강북구,서울특별시 강북구 오현로31길 85-7 번동 656-2,37.63112259,127.0360336,오현로31길,번동
721, 강북중학교 앞,강북구,서울특별시 강북구 한천로150길 67 수유동 694-2,37.64473724,127.0265656,도봉로99길,수유동
722, 강북구청 뒷편,강북구,서울특별시 강북구 도봉로89길 13 수유동 192-59,37.63967133,127.0251999,한천로139나길,수유동
723, 강북구청 사거리 버스정류소 앞,강북구,서울특별시 강북구 한천로 1009 강북구청 사거리 버스정류소,37.63880539,127.0283585,한천로,번동
724, 송천동 주민센터,강북구,서울특별시 강북구 솔샘로 284 송천동 주민센터,37.61828613,127.0240479,솔샘로58길,미아동
725, 우이초등학교 후문 옆,강북구,서울특별시 강북구 수유동 409-131,37.63858795,127.0159073,삼양로99길,수유동
726, 수유2동은행빌딩 앞,강북구,서울특별시 강북구 삼양로 439 SK telecom(수유직영점),37.64308548,127.0161667,삼양로113길,수유동
727, 장미원시장 건너편,강북구,서울특별시 강북구 삼양로 474 수유동 317-3,37.64545059,127.0156174,삼양로124길,수유동
728, 수유중앙시장,강북구,서울특별시 강북구 노해로 50 수유동 140,37.63986206,127.022789,노해로,수유동
729, 미아동 복합청사,강북구,서울특별시 강북구 솔매로49길 14 미아동 195-1,37.62714005,127.0266953,도봉로54길,미아동
730, 강북종합시장 앞,강북구,서울특별시 강북구 수유동 140 수유동 채선당앞,37.64173889,127.0246277,한천로,수유동
731, 미아역 1번 출구 뒤,강북구,서울특별시 강북구 미아동 194-1 미아역 1번 출구 뒤,37.62733459,127.0260544,도봉로,미아동
732, 삼각산동 주민센터,강북구,서울특별시 미아동 813-8 삼각산동 주민센터,37.61503601,127.0206986,삼양로,미아동
733, 미아동 한국전력공사,강북구,서울특별시 미아동 194-1 미아동 한국전력공사,37.63018036,127.02491,도봉로65길,미아동
734, 광산사거리,강북구,서울특별시 강북구 노해로 87 광산사거리,37.64355087,127.0223465,한천로,수유동
735, 미아사거리 1번 출구,강북구,서울특별시 강북구 미아동 66-1 미아사거리 1번 출구,37.61395645,127.0302506,도봉로10길,미아동
736, 번3동 주민센터 교차로,강북구,서울특별시 강북구 번동 2-2 번3동 주민센터 교차로,37.62635422,127.0474472,우이천서자전거길,번동
737," 번동 주공3, 4단지 교차로",강북구,"서울특별시 강북구 번동 254 번동 주공3, 4단지 교차로",37.62991714,127.0409164,오현로36길,번동
738, 효성인텔리안 앞,강북구,서울특별시 수유동 230-7 효성인텔리안 앞,37.6362915,127.0233765,노해로,수유동
739, 번동 두산위브 101동 옆,강북구,서울특별시 번동 386-17 번동 두산위브 101동 옆,37.63626099,127.0321732,한천로,번동
740, 북한산 우이역,강북구,서울특별시 강북구 삼양로 670 북한산 우이역,37.66366577,127.0124283,삼양로171길,우이동
741, 솔밭공원역,강북구,서울특별시 강북구 삼양로 595 솔밭공원역,37.65615845,127.0131378,삼양로155길,우이동
742,4.19민주묘지역,강북구,서울특별시 강북구 삼양로 519 4.19민주묘지역,37.64967346,127.0134506,삼양로139길,우이동
743, 가오리역,강북구,서울특별시 강북구 삼양로 426 가오리역,37.64167023,127.0168839,삼양로,수유동
744, 삼양역,강북구,서울특별시 강북구 삼양로 263 삼양역,37.62652969,127.0180588,삼양로57길,미아동
745, 삼양사거리역,강북구,서울특별시 강북구 삼양로 197 삼양사거리역,37.62155151,127.0203705,삼양로39길,미아동
746, 수유1동 주민센터,강북구,서울특별시 강북구 삼양로 299 수유1동 주민센터,37.63018799,127.0177383,삼양로73길,수유동
747, 송천동우체국,강북구,서울특별시 강북구 도봉로 71 송천동우체국,37.61545944,127.0297012,솔샘로68길,미아동
748, 꿈의숲 롯데캐슬,강북구,서울특별시 강북구 오현로 56 꿈의숲 롯데캐슬 111동 인근,37.6186409,127.0362396,오패산로30가길,미아동
749, 북서울 꿈의숲 서문,강북구,서울특별시 강북구 월계로 173 북서울 꿈의숲 서문,37.62268829,127.0378113,오현로,번동
750,삼각산아이원아파트(105동 옆),강북구,서울특별시 강북구 삼양로19길 113 삼각산아이원아파트,37.61522293,127.0185089,삼양로19길,미아동
751,4.19탑 앞,강북구,서울특별시 강북구 수유동 567-55,37.64686203,127.008812,4.19로,수유동
752, 강북구청사거리,강북구,서울특별시 강북구 도봉로 358 코스타타워,37.63920212,127.0272369,도봉로,번동
753,서울북부고용노동지청,강북구,서울특별시 강북구 덕릉로 176 예수그리스도 후기성도교회,37.63520432,127.0339661,덕릉로40나길,번동
754,번동사거리,강북구,서울특별시 강북구 번동 430-76,37.63539124,127.0345535,덕릉로,번동
755,신창교,강북구,서울특별시 강북구 번동 612-3,37.63238144,127.0393066,우이천로4길,번동
756,강북문화정보도서관,강북구,서울특별시 강북구 번동 139-5,37.62552643,127.037323,오현로20길,번동
757, 도봉세무서 앞,강북구,서울특별시 강북구 도봉로 117 도봉세무서,37.6198082,127.0285263,도봉로23길,미아동
758,4.19민주묘지역 1번출구,강북구,서울특별시 강북구 삼양로 522,37.64959717,127.0138474,삼양로140길,우이동
759,수유사거리,강북구,서울특별시 강북구 수유동 45-33,37.63561249,127.022995,도봉로81길,수유동
760,4.19민주묘지 입구사거리,강북구,서울특별시 강북구 삼양로 504 광리빌딩,37.64793396,127.0145721,삼양로,수유동
761,수유역2번출구,강북구,서울특별시 강북구 도봉로 342,37.63796997,127.0259018,오패산로,번동
762,북서울 꿈의 숲 입구,강북구,서울특별시 강북구 오현로20길 46,37.62673187,127.0387726,오현로20길,번동
763, 우이동 먹거리마을,강북구,서울특별시 강북구 우이동 207-14,37.66446304,127.0118408,삼양로181길,우이동
764,현대성우아파트 옆,강북구,서울특별시 강북구 삼양로24길 19 현대성우아파트,37.61666489,127.02211,삼양로24길,미아동
765,송중초등학교 옆,강북구,서울특별시 강북구 미아동 98-5,37.61669922,127.0304947,도봉로16길,미아동
766,삼양입구삼거리,강북구,서울특별시 강북구 솔샘로 326 대한예수교장로회 신성교회,37.61708832,127.0280991,솔샘로,미아동
767, 드래곤타워 앞,강북구,서울특별시 강북구 도봉로 348-1 구두수선대-15,37.63713455,127.0313797,한천로,번동
768, 월계2교 교차로,강북구,서울특별시 강북구 번동 259,37.6242218,127.0492172,월계로44길,번동
769, 송천센트레빌,강북구,서울특별시 강북구 미아동 461-4,37.61220932,127.0249786,숭인로,미아동
770,번동3단지 버스정류장,강북구,서울특별시 강북구 서울 강북구 번동 255도,37.628685,127.0439072,월계로37길,번동
771, 우이천 창번교,강북구,서울특별시 강북구 번동 655-8,37.63536072,127.037674,한천로120길,번동
772,삼양동주민센터 앞,강북구,강북구 솔매로69,37.62491226,127.0197907,솔매로,미아동
773,강북 청소년 문화정보도서관 앞,강북구,강북구 삼양로54길 68,37.62302017,127.0218658,삼양로46길,미아동
774, 녹천역 1번출구 앞,도봉구,서울특별시 도봉구 창동 426-6,37.64582062,127.0504227,노해로66길,창동
775, 도봉산광역환승센터앞,도봉구,서울특별시 도봉구 도봉로 955 도봉동 637-1,37.68972015,127.0451965,도봉로,도봉동
776, 도봉구청 정문앞,도봉구,서울특별시 도봉구 마들로 656 방학동 720,37.66922379,127.0465164,마들로,방학동
777, 방학동우체국 건너편,도봉구,서울특별시 도봉구 도봉로 683 방학동 726-92,37.66566467,127.0426712,도봉로149길,방학동
778, 도봉구민회관,도봉구,서울특별시 도봉구 도봉로 552 창동 723-11,37.65446091,127.0385132,도봉로,창동
779, 도봉보건소사거리,도봉구,서울특별시 도봉구 해등로 150 창동 723-10,37.65682983,127.0398483,도봉로,창동
780, 쌍문역4번출구 주변,도봉구,서울특별시 도봉구 도봉로 지하 486-1 쌍문동 83-5,37.65012741,127.035347,도봉로,쌍문동
781, 쌍문동 이안아파트 앞,도봉구,서울특별시 도봉구 쌍문동 315-488,37.65165329,127.0284882,노해로49길,쌍문동
782, 도봉문화정보도서관 삼거리,도봉구,서울특별시 도봉구 덕릉로 315 도봉문화정보도서관 삼거리,37.64463043,127.0446091,덕릉로,창동
783, 서울특별시교육청도봉도서관,도봉구,서울특별시 도봉구 삼양로556 서울특별시교육청도봉도서관,37.65317917,127.0127869,삼양로,쌍문동
784, 창동역 1번출구 건너편,도봉구,서울특별시 도봉구 마들로11길 20 하나로마트 창동점,37.65420151,127.0507278,마들로11길,창동
785, 시립창동운동장 입구,도봉구,서울특별시 도봉구 창동 1-24 시립창동운동장 입구,37.65570831,127.0501022,노해로69길,창동
786, 신도봉사거리 버스정류장,도봉구,서울특별시 도봉구 도봉로 771 신도봉사거리 버스정류장,37.67328262,127.0439911,도봉로157길,도봉동
787, 도봉구청 옆(중랑천변),도봉구,서울특별시 도봉구 마들로 656 도봉구청 옆(중랑천변),37.66867065,127.0479813,마들로,방학동
788, 창동역 2번출구,도봉구,서울특별시 창동 74-2 창동역 2번출구,37.65301514,127.0469971,노해로63길,창동
789, 창동청소년수련관,도봉구,서울특별시 도봉구 노해로69길 132 창동청소년수련관,37.65779877,127.0500488,노해로69길,창동
790, 방학동학마을도서관,도봉구,서울특별시 도봉구 시루봉로 128 방학동학마을도서관,37.66207886,127.0277176,시루봉로,방학동
791, 창1동주민센터,도봉구,서울특별시 도봉구 해등로 46 창1동주민센터,37.6475029,127.0433121,해등로3길,창동
792, 삼익세라믹아파트교차로,도봉구,서울특별시 도봉구 해등로 189 삼익세라믹아파트,37.65858841,127.0352097,해등로,쌍문동
793, 서울도봉초등학교인근,도봉구,서울특별시 도봉구 도봉로173길 96 서울도봉초등학교인근,37.67867661,127.0407639,도봉로171길,도봉동
794, 서울북부지방법원,도봉구,서울특별시 도봉구 마들로 749 서울북부지방법원,37.67771912,127.046814,도봉로168길,도봉동
795, 도봉한신아파트 버스정류장,도봉구,서울특별시 도봉구 도봉로 891 파리바게트앞,37.68400955,127.0457916,도봉산1길,도봉동
796, 도봉산역 교차로 앞,도봉구,서울특별시 도봉구 도봉산길 10 도봉산역 교차로 앞,37.68759155,127.0455017,도봉로,도봉동
797, 도봉고등학교 맞은편,도봉구,서울특별시 도봉구 도봉동 282-16,37.6876297,127.0422134,도봉산4길,도봉동
798, 방학역사거리,도봉구,서울특별시 도봉구 도봉로 707 우리은행 앞,37.66759872,127.0429993,도봉로,방학동
799, 방학사거리 (봄마당 앞),도봉구,서울특별시 도봉구 방학로 102 방학사거리 (봄마당 앞),37.66297913,127.0419388,도봉로,방학동
800, 쌍문현대1차아파트 108동 앞,도봉구,서울특별시 도봉구 해등로 218 쌍문현대1차아파트 108동 앞,37.65814972,127.0326691,해등로26길,쌍문동
801," 도봉역 1,2번 출구사이 건너편",도봉구,"서울특별시 도봉구 도봉로170길 2 도봉역 1,2번 출구사이 건너편",37.67911911,127.0449829,도봉로168길,도봉동
802, 버스정류장 앞,도봉구,서울특별시 도봉구 도봉로 528 버스정류장 앞,37.65224075,127.0370636,노해로61길,창동
803, 신창시장,도봉구,서울특별시 도봉구 덕릉로 249 하나은행 (창동점),37.63970184,127.0388336,덕릉로,창동
804, 창동주공17단지 상가앞,도봉구,서울특별시 도봉구 덕릉로 404 창동주공17단지 상가앞,37.6463089,127.052742,덕릉로66길,창동
805, 제일강산수산입구,도봉구,서울특별시 도봉구 도봉로 444 제일강산수산입구,37.64519882,127.0329819,도봉로,창동
806, 북한산 코오롱 하늘채,도봉구,서울특별시 도봉구 우이천로 367 북한산 코오롱 하늘채,37.64889145,127.0230179,우이천로,쌍문동
807,창동19단지아파트 관리사무소앞,도봉구,서울특별시 도봉구 노해로70길 37 주공19단지아파트,37.65039062,127.0521927,노해로70길,창동
808,도봉소방서 옆,도봉구,서울특별시 도봉구 도봉로 678 홈플러스데스코㈜방학점,37.66480255,127.0430298,도봉로149길,방학동
809, 방학남부역 버스정류장,도봉구,서울특별시 도봉구 도봉로 696,37.66659546,127.0433655,도봉로,방학동
810, 방학역 1번출구,도봉구,서울특별시 도봉구 도봉로 724,37.66898346,127.0437622,도당로31길,방학동
811, ESA아파트 상가 앞,도봉구,서울특별시 도봉구 도봉로150길 43 ESA 아파트,37.66627121,127.04599,마들로,방학동
812, 창포원 남쪽 입구,도봉구,서울특별시 도봉구 마들로 916 방문자센터,37.68826675,127.0488968,마들로,도봉동
813, 창원초등학교 교차로,도봉구,서울특별시 도봉구 해등로12길 44 주공2단지아파트,37.6521225,127.0417023,해등로12길,창동
814, 창동 주공 4단지 입구 옆,도봉구,서울특별시 도봉구 덕릉로 357 주공4단지아파트,37.64548111,127.0485764,덕릉로,창동
815, 창동시장입구 사거리,도봉구,서울특별시 도봉구 도봉로 461 우림빌딩,37.64689636,127.033432,도봉로109길,쌍문동
816,서울북부광역등기국,도봉구,서울특별시 도봉구 노해로 327,37.6514473,127.0447083,노해로65길,창동
817,솔밭공원역 1번출구 앞,도봉구,서울특별시 도봉구 삼양로 590,37.65568542,127.013382,삼양로155길,쌍문동
818,솔밭공원역 1번출구 주변,도봉구,서울특별시 도봉구 삼양로 610 산수디앤씨,37.65727997,127.0137558,삼양로,쌍문동
819,서울북부지방법원 앞,도봉구,서울특별시 도봉구 마들로 749 서울북부지방법원,37.67721939,127.0486374,마들로,도봉동
820,방학중학교 앞,도봉구,서울특별시 도봉구 시루봉로 188 방학중학교,37.66562271,127.0310898,시루봉로12길,방학동
821,북한산 한신휴플러스APT앞,도봉구,서울특별시 도봉구 도봉로136가길 73 북한산한신휴플러스아파트,37.65533829,127.0424194,해등로16길,창동
822,쌍문역 1번출구 주변,도봉구,서울특별시 도봉구 도봉로 496,37.64966965,127.035614,도봉로118길,창동
823,방학초등학교 앞,도봉구,서울특별시 도봉구 방학동 726-127,37.66250992,127.0332794,방학로,방학동
824,신동아타워 버스정류소,도봉구,서울특별시 도봉구 방학로 217-1,37.66205215,127.0287552,방학로,방학동
825,도봉한신아파트 주변,도봉구,서울특별시 도봉구 도봉동 646-1,37.68473816,127.0500412,도봉로180나길,도봉동
826,성원APT버스정류소,도봉구,서울특별시 도봉구 해등로 242-18 현대아파트,37.65796661,127.0300903,해등로,쌍문동
827,시립도봉노인복지관 버스정류소,도봉구,서울특별시 도봉구 쌍문동 45-13,37.65805054,127.035759,도봉로133길,쌍문동
828,정의여중고 버스정류소,도봉구,서울특별시 도봉구 쌍문동 83-2,37.65134811,127.034729,노해로,쌍문동
829,신원리베르텔 앞,도봉구,서울특별시 도봉구 창동 339,37.65128708,127.0455475,노해로,창동
830, 창동한신아파트 버스정류소,도봉구,서울특별시 도봉구 도봉로110길 25 맞은편,37.64601898,127.0352707,도봉로110길,창동
831, 다락원체육공원 전망대 입구,도봉구,서울특별시 도봉구 도봉구 도봉동 1-22,37.69101334,127.0491638,창포원로,도봉동
832, 평화도봉공원 주변,도봉구,서울특별시 도봉구 방학동 710,37.66252136,127.0427094,도봉로,방학동
833, 신창아파트 입구 앞,도봉구,서울특별시 도봉구 도봉구 덕릉로62길 14,37.64051056,127.0408249,덕릉로60길,창동
834, 창동역 1번출구 앞,도봉구,서울특별시 도봉구 도봉구 창동 1-12,37.65373611,127.0492935,마들로11가길,창동
835,방아골종합사회복지관,도봉구,서울특별시 도봉구 방학동 606-5,37.66927338,127.0324326,시루봉로17길,방학동
836, 도봉구육아종합지원센터(창동),도봉구,서울특별시 도봉구 도봉구 우이천로4길 24-5,37.63342667,127.0411606,우이천로4길,창동
837, 도봉통합복지센터 뒤 중랑천 변,도봉구,서울특별시 도봉구 창동,37.65999603,127.0512772,마들로18길,창동
838, 도봉제1교,도봉구,서울특별시 도봉구 도봉동 86-1,37.67984772,127.0503845,동일로243길,도봉동
839, 원당공원 앞,도봉구,서울특별시 도봉구 도봉구 쌍문동 250-6,37.65854645,127.0276794,시루봉로,쌍문동
840, 창동주공19단지앞,도봉구,서울특별시 도봉구 도봉시 노해로 70길 19 1905동 앞 ( 도봉경찰서 건너편) 버스정류장 쯤에 희망합니다 (분명 설치예정팻말이 붙어있었는데 아직도 시행안됨),37.65250778,127.0522766,노해로69길,창동
841,도봉아이나라도서관 앞,도봉구,서울특별시 도봉구 창동 808-3,37.65898895,127.049736,마들로14길,창동
842, 도봉동실내스포츠센터,도봉구,서울특별시 도봉구 도봉구 마들로 805 (도봉동실내스포츠센터 앞),37.68125534,127.0504761,도봉로180길,도봉동
843, 도봉로 534,도봉구,서울특별시 도봉구 도봉로 534,37.6529541,127.0375443,노해로61길,창동
844, 우이교 교차로,도봉구,서울특별시 도봉구 도봉로 420,37.6432457,127.031601,우이천로,창동
845, 김근태도서관,도봉구,서울특별시 도봉구 도봉동 282-275,37.68750763,127.0426331,도봉산4길,도봉동
846, 동부센트레빌 앞,도봉구,서울특별시 도봉구 방학로 131-1 구두수선대,37.66299057,127.0386429,방학로,방학동
847,녹천교 앞 사거리,도봉구,창동36(녹천교앞사거리 17단지쪽),37.64564514,127.054596,덕릉로66길,창동
848,방학역2번출구,도봉구,방학동719-2,37.66922379,127.0444183,도봉로152길,방학동
849,도봉경찰서 교차로,도봉구,창동36,37.65265656,127.053093,노해로,창동
850,창동동아청솔정문 건너편,도봉구,창동 1-24,37.65703964,127.0499115,노해로69길,창동
851, 석계역 문화광장 내 자전거 보관소,노원구,서울특별시 노원구 화랑로 331,37.61495972,127.0646973,화랑로,월계동
852, 광운대역 앞,노원구,서울특별시 노원구 석계로 98-2 노원구 월계동 412-1,37.62266159,127.0618973,석계로15길,월계동
853, 헬스케어,노원구,서울특별시 노원구 월계로 378 노원구 월계동 321-4,37.63162231,127.061615,월계로55길,월계동
854, 태릉입구역 3번출구,노원구,서울특별시 노원구 동일로 지하 992-1 노원구 공릉동 616-4,37.61917114,127.0749283,동일로174길,공릉동
855, 공릉역 1번 출구 앞,노원구,서울특별시 노원구 동일로 지하 1074 노원구 공릉동 385-4,37.62661362,127.0727539,동일로192가길,공릉동
856, 화랑대역 2번출구 앞,노원구,서울특별시 노원구 화랑로 지하 510 노원구 공릉동 280-12,37.62036896,127.0836411,노원로1길,공릉동
857, 과기대 입구(우),노원구,서울특별시 노원구 공릉로 232 노원구 공릉동 436-4,37.62994003,127.0765533,공릉로51길,공릉동
858, 하계2동 공항버스정류장 옆,노원구,서울특별시 노원구 동일로 지하 1196 노원구 하계동 273-5,37.63510895,127.0683289,공릉로59나길,하계동
859, 하계동 중평어린이공원 앞,노원구,서울특별시 노원구 섬밭로 241 하계동 271-1,37.63714981,127.0632706,동일로203길,하계동
860, 중계동 하나프라자빌딩 앞(중1-1),노원구,서울특별시 노원구 한글비석로 235 노원구 중계동 391,37.64902115,127.0764084,중계로19길,중계동
861, 중계동 노원구민체육센터 옆(중1-2),노원구,서울특별시 노원구 노원로22길 1 노원구 중계1동 360-18,37.64820862,127.070221,덕릉로71길,중계동
862, 상계역(4번출구),노원구,서울특별시 노원구 상계로 182 노원구 상계동 173-19,37.65999985,127.0729675,한글비석로20길,상계동
863, 수락산역 4번출구,노원구,서울특별시 노원구 동일로 지하 1662 노원구 상계동 1263,37.67694092,127.0550995,동일로,상계동
864, 노일초등학교 앞,노원구,서울특별시 노원구 동일로 1652 노원구 상계동 1118-9,37.67361832,127.0552521,동일로,상계동
865, 수연빌딩 앞,노원구,서울특별시 노원구 동일로 지하 1662 노원구 상계동 1132-9,37.67625046,127.0555039,동일로242가길,상계동
866, 당고개공원 대여소,노원구,서울특별시 노원구 상계동 1355-2,37.66846085,127.0771484,덕릉로109다길,상계동
867, 상계3.4동 주민센터 대여소,노원구,서울특별시 노원구 덕릉로131길 8 노원구 상계동 37-7,37.67271042,127.0831604,덕릉로131길,상계동
868, 상계주공2단지 버스정류장 옆,노원구,서울특별시 노원구 동일로 1351 노원구 상계동 747,37.64921188,127.0617676,동일로213길,상계동
869, KT 전화국 버스정류장 옆,노원구,서울특별시 노원구 노해로 489 노원구 상계동 719-1,37.65470123,127.0634003,노해로81길,상계동
870, 희성오피앙,노원구,서울특별시 노원구 동일로 1701 노원구 상계동 1263,37.68031311,127.055069,동일로245가길,상계동
871, 한내근린공원 북측,노원구,서울특별시 노원구 마들로 86 한내근린공원 북측,37.62386322,127.0684891,섬밭로,월계동
872, 한내근린공원 남측,노원구,서울특별시 노원구 마들로 86 한내근린공원 남측,37.62155533,127.0695114,섬밭로,월계동
873, 서울여대 남문,노원구,서울특별시 노원구 화랑로 621 서울여자대학교 서울여대 후문,37.62531662,127.0881348,화랑로,공릉동
874, 태릉입구역 8번출구,노원구,서울특별시 노원구 공릉동 687-6 태릉입구역 8번출구,37.61736679,127.0752106,화랑로,공릉동
875, 삼육대 입구,노원구,서울특별시 노원구 공릉동 26-43 삼육대 입구,37.63848877,127.1079025,화랑로60길,공릉동
876, 중계근린공원내,노원구,서울특별시 노원구 중계동 506-3 중계근린공원내,37.63957977,127.0651016,동일로203가길,중계동
877, 상계동 우방유쉘아파트 앞,노원구,서울특별시 노원구 상계동 1118-9 맥도날드 상계점 앞,37.67237473,127.0559921,동일로232길,상계동
878, 파르코 앞,노원구,서울특별시 노원구 상계동 1263 파르코 앞,37.68000031,127.0555801,동일로248길,상계동
879, 노원역1번출구,노원구,서울특별시 노원구 상계동 335-4 노원역1번출구,37.65620041,127.0636215,노해로81길,상계동
880, 당고개입구 오거리,노원구,서울특별시 노원구 상계동 172-2 보훈회관 대여소,37.66379166,127.0754471,덕릉로95길,상계동
881, 공릉1단지아파트,노원구,서울특별시 동일로 1127 공릉1단지아파트,37.63111115,127.0701599,동일로198가길,공릉동
882, 중앙하이츠 아파트 입구,노원구,서울특별시 노원구 노원로 434 상계2차중앙하이츠아파트,37.65501785,127.0675049,노원로32길,상계동
883, 노원구청,노원구,서울특별시 노원구 노해로 437 노원구청,37.65404892,127.0573273,노해로75길,상계동
884, 중계동 을지중학교,노원구,서울특별시 노원구 중계동 370 중계동 을지중학교,37.65032959,127.0716019,덕릉로71길,중계동
885, 서울시립과학관,노원구,서울특별시 노원구 하계동 266 서울시립과학관,37.64207077,127.076622,한글비석로,하계동
886, 당현천근린공원,노원구,서울특별시 노원구 동일로 1342 당현천근린공원,37.64963913,127.0656052,동일로214길,상계동
887, 노원역7번출구,노원구,서울특별시 노원구 노해로 459 메가빌딩,37.65421677,127.0592117,노해로77길,상계동
888, 동해문화예술관앞,노원구,서울특별시 노원구 화랑로 429 동해문화예술관앞,37.61938095,127.0578537,광운로3길,월계동
889, 노해근린공원내,노원구,서울특별시 노원구 노원로22길 1 노해근린공원내,37.64936066,127.0704422,덕릉로71길,중계동
890, 양지근린공원앞,노원구,서울특별시 노원구 한글비석로 227 양지근린공원앞,37.64733505,127.0764237,중계로19길,중계동
891, 노원소방서인근,노원구,서울특별시 노원구 노원로26길 111 노원소방서인근,37.65578079,127.0717773,상계로12길,상계동
892, 중계중학교,노원구,서울특별시 노원구 덕릉로76길 23 중계중학교,37.65449905,127.0743866,덕릉로77길,중계동
893, 중계역 6번출구,노원구,서울특별시 노원구 동일로 지하 1308-1 중계역 6번출구,37.64550781,127.0632553,동일로211길,중계동
894, 중계역 3번출구,노원구,서울특별시 노원구 동일로 지하 1308-1 중계역 3번출구,37.64352798,127.0652237,동일로208길,중계동
895, 노원경찰서교차로,노원구,서울특별시 노원구 노원로 283 노원경찰서교차로,37.64340973,127.0718384,노원로,하계동
896, 인덕대학교,노원구,서울특별시 노원구 초안산로 12 인덕대학교,37.62934875,127.0548248,월계로49길,월계동
897, 상계동수락리버시티,노원구,서울특별시 노원구 누원로 18 상계동수락리버시티,37.68859863,127.0534058,누원로,
898, 서울북부고용센터앞,노원구,서울특별시 노원구 노해로 450 서울북부고용센터앞,37.65354919,127.0580826,노해로75길,상계동
899, 월계문화체육센터,노원구,서울특별시 노원구 월계로 280 월계문화체육센터,37.62694168,127.05513,월계로,월계동
900, 육군사관학교 앞,노원구,서울특별시 노원구 화랑로 570 육군사관학교 앞,37.62316513,127.0904999,화랑로51가길,공릉동
901, 성서대학교 밀알관,노원구,서울특별시 노원구 동일로214길 32 성서대학교 밀알관,37.6484375,127.0644455,동일로,상계동
902, 삼육대 도서관,노원구,서울특별시 노원구 화랑로 815 삼육대 도서관,37.6428299,127.1066666,화랑로60가길,공릉동
903, 삼육대 제3과학관,노원구,서울특별시 노원구 화랑로 653 삼육대 후문 삼거리,37.64265442,127.1083832,화랑로60가길,공릉동
904, 현대6차 아파트,노원구,서울특별시 노원구 중계로8길 20 현대6차 아파트,37.64580154,127.0822601,중계로,중계동
905, 중계종합사회복지관 교차로,노원구,서울특별시 노원구 덕릉로 662 중계3단지주공영구임대아파트,37.65745544,127.0755463,덕릉로,중계동
906, 노원문화예술회관,노원구,서울특별시 노원구 중계로 181 노원문화예술회관,37.65045929,127.0808868,중계로,중계동
907, 태릉입구역 5번출구,노원구,서울특별시 노원구 동일로 986 태릉입구역 5번출구와 6번출구 사이,37.61832047,127.0756302,동일로174길,공릉동
908, 불암고등학교 앞 횡단보도,노원구,서울특별시 노원구 중계로 155 불암고등학교 앞 횡단보도,37.64818954,127.0804825,중계로,중계동
909, 상계주공10단지 종합상가 앞,노원구,서울특별시 노원구 동일로227길 85 온수골사거리(스타벅스앞),37.66114044,127.0580521,동일로221길,상계동
910, 마들역 7번출구,노원구,서울특별시 노원구 동일로 지하 1530-1 마들역 7번출구,37.66566086,127.0572968,동일로228길,상계동
911, 마들역 3번출구,노원구,서울특별시 노원구 동일로 지하 1530-1 마들역 3번출구,37.66524887,127.0578919,동일로228길,상계동
912, 도봉운전면허시험장 버스정류장 옆,노원구,서울특별시 노원구 동일로 1449 도봉운전면허시험장,37.6577301,127.0593109,동일로221길,상계동
913, 노원정보도서관,노원구,서울특별시 노원구 노원로34길 43 노원정보도서관,37.66070938,127.0653305,노원로34길,상계동
914, 온곡초교 교차로,노원구,서울특별시 노원구 한글비석로 471 온곡초교 교차로,37.66418839,127.0660095,한글비석로,상계동
915, 원자력 병원,노원구,서울특별시 노원구 노원로 75 원자력병원 국가방사선 비상진료센터,37.62818909,127.0821075,공릉로46길,공릉동
916,수락리버시티4단지,노원구,서울특별시 노원구 누원로 18 수락리버시티4단지,37.68645096,127.0528336,누원2길,상계동
917,상계주공2단지 219동,노원구,서울특별시 노원구 동일로215길 81 새상계교회,37.65024948,127.0571518,중랑천동자전거길,상계동
918,공릉동풍림아파트 101동,노원구,서울특별시 노원구 섬밭로 139 공릉풍림아파트,37.62981415,127.0665054,섬밭로,공릉동
919,공릉풍림아파트 108동,노원구,서울특별시 노원구 섬밭로 139 공릉풍림아파트,37.62862015,127.0669098,섬밭로,공릉동
920,월계초안아파트 1단지,노원구,서울특별시 노원구 덕릉로60타길 24,37.63372803,127.0443649,덕릉로60타길,월계동
921,중계3차청구아파트,노원구,서울특별시 노원구 중계로 233 청구3차아파트,37.65050507,127.0739822,중계로19길,중계동
922, 월계중학교,노원구,서울특별시 노원구 초안산로 29 신계초등학교,37.63074875,127.0531082,초안산로3길,월계동
923, 광운대학교 중앙도서관,노원구,서울특별시 노원구 광운로 20 광운대학교,37.62000275,127.0585632,광운로7길,월계동
924, 석계역 3번 출구,노원구,서울특별시 노원구 화랑로 351-2 구두수선대196,37.61545944,127.0674515,화랑로47길,월계동
925,도깨비시장,노원구,서울특별시 노원구 동일로 1028 한의학명가,37.6220932,127.0744247,동일로,공릉동
926,상계역중앙시장,노원구,서울특별시 노원구 한글비석로 389-2 가로판매대,37.6588707,127.0719147,한글비석로21길,상계동
927,대진고등학교,노원구,서울특별시 노원구 한글비석로 97,37.63815689,127.0732651,공릉로62길,하계동
928,상계8동 주민센터,노원구,서울특별시 노원구 동일로227길 85 상계주공11단지아파트,37.666996,127.0515289,마들로,상계동
929,서울과학기술대학교(미래관),노원구,서울특별시 노원구 노원로 75 한국원자력의학원,37.62950897,127.0810394,공릉로46길,공릉동
930,서울과학기술대학교(어학교육원),노원구,서울특별시 노원구 공릉로58길 130 서울과학기술대학교 생활관,37.63489914,127.0776749,공릉로58라길,하계동
931,신창중학교 후문 맞은편 버스정류장,노원구,서울특별시 노원구 월계동 855-26,37.62807083,127.0469208,우이천로,월계동
932,등나무 근린공원(시립북서울미술관 앞),노원구,서울특별시 노원구 동일로 1231-2 가로판매대173,37.63999557,127.0665741,동일로204가길,중계동
933,상계중학교(당현2교사거리),노원구,서울특별시 노원구 상계동 225-5,37.65103531,127.0687103,덕릉로71길,상계동
934,중계역 2번출구,노원구,서울특별시 노원구 동일로208길 19 중계무지개아파트,37.64548874,127.0645828,동일로208길,중계동
935, 상계주공 14단지 상가 앞,노원구,서울특별시 노원구 (도로명) 서울 노원구 동일로 228길 23,37.66963577,127.0597076,수락산로,상계동
936, 상계초교 입구 교차로 명주빌딩 앞,노원구,서울특별시 노원구 서울 노원구 노원로 449,37.65680313,127.0665741,노해로85길,상계동
937, 당고개입구오거리 당현천변,노원구,서울특별시 노원구 서울 노원구 중계동 140-46,37.66260529,127.0755768,덕릉로,중계동
938, 중계2차 한화꿈에그린 101동 인근,노원구,서울특별시 노원구 서울 노원구 덕릉로83길 5,37.65955734,127.0752564,덕릉로,중계동
939, 노원 을지대학교 병원,노원구,서울특별시 노원구 서울 노원구 한글비석로 68,37.63666916,127.0696945,공릉로59나길,하계동
940, 하계 어린이 공원,노원구,서울특별시 노원구 서울 노원구 하계2동 273-3,37.63214493,127.0698242,공릉로55길,하계동
941, 월계프라자,노원구,서울특별시 노원구 초안산로5길 22 대우아파트,37.63284302,127.0521317,초안산로,월계동
942, 월계 센트럴 아이파크,노원구,서울특별시 노원구 서울 노원구 초안산로2라길 26,37.62917328,127.0569305,월계로49길,월계동
943, 중계 롯데마트,노원구,서울특별시 노원구 서울 노원구 노원로 330,37.64584351,127.070755,노원로20길,중계동
944, 당고개역 3번 출구,노원구,서울특별시 노원구 서울 노원구 상계로 305,37.67030334,127.0788422,상계로37길,상계동
945, 노원 마들스타디움,노원구,서울특별시 노원구 서울 노원구 덕릉로 450,37.64530945,127.0574417,덕릉로70가길,상계동
946, 월계 청백1단지 아파트 정류장,노원구,서울특별시 노원구 초안산로 89 월계청백1단지아파트,37.63459396,127.052063,초안산로7길,월계동
947, 상계주공15단지 버스정류소,노원구,서울특별시 노원구 서울 노원구 상계동 650,37.66782761,127.056839,동일로228길,상계동
948, 상계주공10단지 버스정류소,노원구,서울특별시 노원구 서울 노원구 상계동 694-1,37.66214371,127.058197,동일로221길,상계동
949, 중계동 성모빌딩 앞,노원구,서울특별시 노원구 한글비석로 263 성모빌딩,37.65116119,127.0765915,중계로20길,중계동
950, 중계본동 입구,노원구,서울특별시 노원구 서울 노원구 중계로 90,37.64426041,127.083313,중계로6길,중계동
951, 월계역 1번 출구,노원구,서울특별시 노원구 월계동 263-6,37.63441086,127.0588684,초안산로2길,월계동
952, 꿈의숲 SK뷰 아파트,노원구,서울특별시 노원구 서울시 노원구 월계로 42길97,37.62045288,127.054451,우이천서자전거길,월계동
953, 한천교 동편,노원구,서울특별시 노원구 서울 노원구 공릉동 547-1,37.62533569,127.0701904,동일로193길,공릉동
954, 상계주공1단지아파트,노원구,서울특별시 노원구 덕릉로459-21,37.64795303,127.0579376,동일로213길,상계동
955, 한내 행복발전소 옆,노원구,서울특별시 노원구 서울 노원구 마들로3길 15 (월계동),37.62741089,127.0621414,마들로3길,월계동
956, 한일유앤아이아파트 105동 인근,노원구,서울특별시 노원구 노원구 상계동 197-38,37.65351868,127.0713043,노원로24길,상계동
957, 청소년수련관 후문,노원구,서울특별시 노원구 노원구 중계동 504-2,37.6396637,127.0604172,동일로207길,중계동
958, 청암예술학교 앞,노원구,서울특별시 노원구 덕릉로76길 18 원광초등학교,37.65153503,127.0732727,덕릉로73길,중계동
959, 은행사거리 성모빌딩 앞,노원구,서울특별시 노원구 서울 노원구 한글비석로 268,37.65149689,127.0770416,중계로20길,중계동
960, 녹천역 4번 출구 옆,노원구,서울특별시 노원구 서울 노원구 월계동 700-6,37.64292908,127.0519486,마들로5길,월계동
961, 상계근린공원 운동장 앞,노원구,서울특별시 노원구 상계동 620,37.67099762,127.0501785,수락산로,상계동
962, 휴플러스 수락한신아파트 101동 앞,노원구,서울특별시 노원구 상계동 996-2,37.674366,127.0594711,동일로242길,상계동
963, 하계역 6번출구,노원구,서울특별시 노원구 노원구 하계동 273-5,37.63793945,127.0671539,동일로204길,하계동
964, 물넘이교,노원구,서울특별시 노원구 노원구 중계동 588-5,37.65408325,127.0719528,노원로24길,중계동
965, 서울시 북부여성발전센터,노원구,서울특별시 노원구 동일로207길 50,37.64304352,127.0621338,섬밭로,중계동
966, 공릉로 26길,노원구,서울특별시 노원구 공릉동 656-6,37.61965561,127.0814667,노원로1길,공릉동
967, 공릉역3번출구,노원구,서울특별시 노원구 공릉동 405-6,37.62500381,127.0730133,동일로187길,공릉동
968, 상계문화정보도서관,노원구,서울특별시 노원구 노원구 동일로243길 57,37.67851257,127.0517426,동일로243길,상계동
969, 상계주공13단지 1301동,노원구,서울특별시 노원구 한글비석로54길 92 상계주공13단지아파트,37.66674042,127.0638886,한글비석로54길,상계동
970, 공릉산 백세문 입구,노원구,서울특별시 노원구 노원로 62 공릉해링턴플레이스,37.62812042,127.0854874,공릉로46길,공릉동
971, 은하수 공원,노원구,서울특별시 노원구 노원구 우이천로 102,37.63000488,127.0440979,우이천로,월계동
972, 상계주공1단지 버스정류장 옆(대원빌딩 앞),노원구,서울특별시 노원구 동일로 1331-2 구두수선대,37.64805984,127.0623932,동일로,상계동
973, 대륜E&S 서울지사 앞,노원구,서울특별시 노원구 덕릉로70길 64,37.64255524,127.0603867,덕릉로70길,상계동
974, 동신아파트 후문 옆,노원구,서울특별시 노원구 공릉로 213 동신아파트,37.62786102,127.0763779,공릉로51길,공릉동
975, 월계 롯데캐슬아파트 뒤,노원구,서울특별시 노원구 월계동 865-5,37.62514877,127.0499344,월계로44길,월계동
976, 목련아파트,노원구,서울특별시 노원구 노원로 333 목련아파트상가,37.64862823,127.0691834,덕릉로71길,중계동
977, 상계신동아아파트,노원구,서울특별시 노원구 한글비석로46나길 10 금호아파트,37.66767883,127.068367,수락산로,상계동
978, 주공601동 상가 노원지하보도 앞,노원구,서울특별시 노원구 동일로 1386-2 가로판매대,37.65229416,127.061348,동일로217길,상계동
979, 월계1동주민센터 앞,노원구,서울특별시 노원구 석계로 59 월계1동주민센터,37.61985016,127.0631027,석계로,월계동
980, 중계주공2단지 앞,노원구,서울특별시 노원구 한글비석로 332 주공2단지아파트,37.65694046,127.0780487,한글비석로12길,중계동
981, 당고개역 앞,노원구,서울특별시 노원구 상계로 309,37.67073822,127.0796204,상계로,상계동
982,공릉동 신도1차 아파트 뒤,노원구,서울특별시 노원구 동일로191가길 59 공릉동 신도1차아파트,37.62780762,127.0696182,동일로197길,공릉동
983, 극동의 푸른별 아파트 뒤(중계4동주민센터 앞),노원구,서울특별시 노원구 한글비석로14길 36 극동의푸른별 2차아파트,37.65868759,127.0775909,덕릉로82길,중계동
984,연해피빌 앞,노원구,노원구 공릉로62가길 14,37.63645935,127.0727692,공릉로62가길,하계동
985,한국스포츠정책과학원 앞,노원구,노원구 화랑로 727,37.63573456,127.1058502,화랑로60길,공릉동
986, 은평예술회관,은평구,서울특별시 은평구 녹번동 85-4 은평예술회관,37.60394287,126.9276962,녹번로,녹번동
987, 진관동 은빛초등학교,은평구,서울특별시 은평구 진관동 45-21 진관동 은빛초등학교,37.64310837,126.9182205,진관3로,진관동
988, 은평뉴타운 아이파크,은평구,서울특별시 은평구 진관동 13-20 은평뉴타운 아이파크,37.64586639,126.9273911,진관4로,진관동
989, 은평뉴타운 푸르지오,은평구,서울특별시 은평구 진관동 5-8 은평뉴타운 푸르지오,37.64867401,126.9307022,북한산로,진관동
990, 구파발역 2번출구,은평구,서울특별시 은평구 진관동 86-31 구파발역 2번출구,37.63623428,126.9189987,진관2로,진관동
991, 연신내역 5번출구,은평구,서울특별시 은평구 대조동 207-8 연신내역 5번출구,37.61721039,126.9195786,연서로,대조동
992, CJ 드림시티,은평구,서울특별시 은평구 역촌동 43-11 CJ 드림시티,37.59949112,126.9168625,진흥로,응암동
993, 구산역 4번출구,은평구,서울특별시 은평구 갈현동 536-8 구산역 4번출구,37.61318588,126.9173508,연서로19길,갈현동
994, 백련산 힐스테이트 3차,은평구,서울특별시 은평구 응암동 761-9 백련산 힐스테이트 3차,37.58699417,126.9228821,백련산로,응암동
995, 은평평화공원(역촌역4번출구),은평구,서울특별시 은평구 녹번동 153-31 은평평화공원(역촌역4번출구),37.60558319,126.9229355,진흥로,녹번동
996, 응암오거리,은평구,서울특별시 은평구 응암동 604-5 응암오거리,37.58966064,126.9169464,가좌로9길,응암동
997, 이마트 버스정류장(서부경찰서 방면),은평구,서울특별시 은평구 응암동 90-15 이마트 은평점,37.60070038,126.9201279,진흥로,응암동
998, 새절역 2번출구,은평구,서울특별시 은평구 응암동 610-3 새절역 2번출구,37.59079742,126.9136505,증산로17길,신사동
999, 증산역 4번출구,은평구,서울특별시 은평구 증산동 199-8 증산역 4번출구,37.5843811,126.9098969,증산로9길,증산동
1000, 평생학습관 앞,은평구,서울특별시 은평구 역촌동 15-40 평생학습관 앞,37.60784912,126.9213257,서오릉로9길,역촌동
1001, 녹번역 3번출구,은평구,서울특별시 은평구 은평로 234-2 구두수선대,37.60078049,126.9352112,은평로22길,응암동
1002, 서울혁신파크,은평구,서울특별시 은평구 녹번동 15-2 서울혁신파크,37.60702515,126.9333115,통일로,녹번동
1003, 신도고등학교,은평구,서울특별시 은평구 진관동 242-14 신도고등학교,37.63001633,126.9190292,갈현로47길,진관동
1004, 연신내역 4번출구,은평구,서울특별시 은평구 대조동 227-2 연신내역 4번출구,37.61780167,126.9219666,통일로,대조동
1005, 국민은행 연서지점,은평구,서울특별시 은평구 불광동 355 국민은행 연서지점,37.62094879,126.9256363,연서로,불광동
1006, 메뚜기다리,은평구,서울특별시 은평구 진관동 161-9 메뚜기다리,37.62851715,126.9295807,연서로43가길,진관동
1007, 불광역 2번출구,은평구,서울특별시 은평구 불광동 285-43 불광역 2번출구,37.60956573,126.9309769,통일로66길,불광동
1008, 연신내역 3번출구 인근,은평구,서울특별시 은평구 불광동 304-5 연신내역 3번출구 인근,37.61785507,126.9225235,통일로,불광동
1009, 은평역사한옥박물관,은평구,서울특별시 은평구 진관동 133-29 은평역사한옥박물관,37.64131546,126.9380417,연서로50길,진관동
1010, 구 서부경찰서 건너편,은평구,서울특별시 은평구 역촌동 41-7 구 서부경찰서 건너편,37.60166168,126.9203033,진흥로3길,역촌동
1011, 역촌파출소,은평구,서울특별시 은평구 역촌동 45-34 역촌파출소,37.60473633,126.9153366,역말로6길,역촌동
1012, 예일여중,은평구,서울특별시 은평구 연서로 117 예일여중,37.61000443,126.9163971,서오릉로,구산동
1013, 역촌종합시장 버스정류장(예일여고 방면),은평구,서울특별시 은평구 서오릉로 163 LG서비스 역촌점,37.61248398,126.9148789,서오릉로13길,구산동
1014, 신사동 성당,은평구,서울특별시 은평구 신사동 41-3 신사동 성당,37.59714127,126.9095993,가좌로,신사동
1015, 상림마을 롯데캐슬2단지 옆,은평구,서울특별시 은평구 진관동 30-23 상림마을 롯데캐슬2단지 옆,37.64585114,126.9237976,진관4로,진관동
1016, 금암 문화공원,은평구,서울특별시 진관동 44-28 금암 문화공원,37.64468384,126.918457,진관3로,진관동
1017, 은평구청 교차로,은평구,서울특별시 응암동 82-31 은평구청 교차로,37.60169983,126.9274216,서오릉로2길,응암동
1018, 은평뉴타운 도서관,은평구,서울특별시 진관동 141-27 은평뉴타운 도서관,37.63722229,126.9333038,진관2로,진관동
1019, 상림마을 생태공원,은평구,서울특별시 진관동 16-4 상림마을 생태공원,37.64408112,126.9292831,진관4로,진관동
1020, 은평구청 보건소,은평구,서울특별시 녹번동 84 은평구청 보건소,37.60240173,126.9286499,서오릉로2길,녹번동
1021, 기자촌 사거리,은평구,서울특별시 은평구 진관동 149-17 기자촌 사거리,37.63414001,126.9323425,진관2로,진관동
1022, 독바위역,은평구,서울특별시 불광로 129 독바위역,37.61843872,126.9328842,불광로,불광동
1023, 연신내 선일하이츠빌 정류소,은평구,서울특별시 불광동 484-165 연신내 선일하이츠빌 정류소,37.62266922,126.9199905,통일로82길,불광동
1024, 디지털미디어 시티역 4번출구(DMC역),은평구,서울특별시 증산동 239 디지털미디어 시티역 4번출구,37.57720184,126.9023514,불광천서자전거길,증산동
1025, 연신내역 1번 출구,은평구,서울특별시 불광동 487-2 연신내역 1번 출구,37.61978149,126.9208069,통일로82길,불광동
1026, 구산역 2번 출구 예일여고 버스정류장,은평구,서울특별시 은평구 연서로 124,37.60980225,126.9167938,연서로14길,역촌동
1027, 서울연신중학교,은평구,서울특별시 불광동 400-4번지 서울연신중학교,37.62265015,126.9252472,연서로35길,불광동
1028, 서울연신초등학교,은평구,서울특별시 불광동 73-1번지 서울연신초등학교,37.6257782,126.9288178,연서로,불광동
1029, 은평뉴타운구파발9단지,은평구,서울특별시 은평구 진관3로 77 은평뉴타운구파발9단지,37.64260864,126.9214783,진관3로,진관동
1030, 응암시장교차로,은평구,서울특별시 은평구 응암로 247 외환은행,37.59441376,126.9180145,응암로25길,응암동
1031, 본 서부병원 버스정류장(은평 세무서 방면),은평구,서울특별시 은평구 은평로 136 신한은행 응암동 지점 앞,37.60036087,126.9228134,은평로10길,응암동
1032, 구파발10단지 인근,은평구,서울특별시 은평구 진관3로 73-17 구파발10단지 인근,37.6436615,126.9145584,진관3로,진관동
1033, 구파발역 환승센터,은평구,서울특별시 은평구 진관2로 지하 15-25 구파발역 환승센터,37.63825226,126.9194565,진관2로,진관동
1034, 불광역 9번 출구,은평구,서울특별시 은평구 통일로 732 불광역 9번 출구,37.61096954,126.9298096,불광로,불광동
1035, 은평뉴타운 힐데스하임,은평구,서울특별시 은평구 진관2로 15-46 은평구 진관2로 15-46,37.63925934,126.9189072,진관3로,진관동
1036, 대호프라자아파트,은평구,서울특별시 은평구 불광로 90 대호프라자아파트,37.61442947,126.932579,불광로6길,불광동
1037, 북한산힐스테이트 7차아파트,은평구,서울특별시 은평구 통일로 796 북한산 힐스테이트7차,37.61654282,126.9251251,통일로72길,불광동
1038, 서울특별시 은평병원,은평구,서울특별시 은평구 백련산로 90 서울특별시 은평병원,37.59347916,126.9231873,백련산로,응암동
1039, 서울혁신파크1,은평구,서울특별시 은평구 통일로 684 서울혁신파크1,37.60903168,126.9346771,통일로62길,녹번동
1040, 서울혁신파크2,은평구,서울특별시 은평구 통일로 684 서울혁신파크2,37.60890961,126.9324188,통일로,녹번동
1041, 은평뉴타운 상림마을 13단지,은평구,서울특별시 은평구 진관4로 48-50 은평뉴타운 상림마을 13단지,37.64208984,126.9294128,진관4로,진관동
1042, 은평 지웰테라스,은평구,서울특별시 은평구 진관4로 78-38 은평지웰 테라스,37.64339447,126.9321365,진관4로,진관동
1043, 역촌 센트레빌 아파트,은평구,서울특별시 은평구 갈현로3나길 23 역촌 센트레빌 아파트 107동 인근,37.60232925,126.9065476,갈현로3나길,역촌동
1044, 수색역,은평구,서울특별시 은평구 수색로 261 수색역,37.58216095,126.894928,수색로,수색동
1045,제각말푸르지오 5-1단지 아파트,은평구,서울특별시 은평구 진관동 136-45,37.63734818,126.9358444,연서로48길,진관동
1046,연신초등학교옆 마을마당,은평구,서울특별시 은평구 불광동 70-1,37.62672043,126.9290161,연서로43가길,불광동
1047,백련산 힐스테이트상가앞,은평구,서울특별시 은평구 백련산로 38 백련산 힐스테이트 2차,37.59036255,126.9230118,백련산로2길,응암동
1048,진관고등학교앞,은평구,서울특별시 은평구 진관4로 26 진관고등학교,37.64350891,126.9241028,진관4로,진관동
1049,신도중학교앞,은평구,서울특별시 은평구 진관동 148-31,37.63310242,126.9315033,진관1로,진관동
1050,녹번 힐스테이트상가앞,은평구,서울특별시 은평구 통일로 602-1 지하철3호선 녹번역,37.60100937,126.9359283,통일로,녹번동
1051,원풍빌라앞,은평구,서울특별시 은평구 신사동 178-9,37.59186172,126.9060822,은평터널로,신사동
1052, 녹번초등학교(서오릉로),은평구,서울특별시 은평구 녹번동 81-27,37.60412598,126.925087,서오릉로4길,녹번동
1053,상신초등학교앞 버스정류장,은평구,서울특별시 은평구 가좌로 316 상신교회,37.59580994,126.9102631,가좌로,신사동
1054, 은평세무서 버스정류장(은평구청 방면),은평구,서울특별시 은평구 은평로 170 상현빌딩,37.60119247,126.926384,백련산로,응암동
1055, 신응교(가좌로) 앞,은평구,서울특별시 은평구 가좌로 255,37.59181213,126.9148331,불광천길,응암동
1056,흥국사 정류장,은평구,서울특별시 은평구 진관동 298-2,37.6567688,126.942009,북한산로,진관동
1057,북한산입구 정류장,은평구,서울특별시 은평구 진관동 289,37.65842819,126.9460602,대서문길,진관동
1058,은평뉴타운 은뜨락아파트앞,은평구,서울특별시 은평구 진관동 235-2,37.63028717,126.9195633,진관1로,진관동
1059,북한산생태공원입구(교통섬),은평구,서울특별시 은평구 불광동 2-1,37.61050797,126.9385376,진흥로,불광동
1060,은평다목적체육관,은평구,서울특별시 은평구 진관1로 52,37.63140869,126.9254074,진관1로,진관동
1061,응암역2번출구 국민은행 앞,은평구,서울특별시 은평구 연서로 9 센타폴리스,37.59996796,126.9157257,은평로3길,역촌동
1062, 본 서부병원 교차로 사거리,은평구,서울특별시 은평구 은평로127,37.60049438,126.9221573,은평로,응암동
1063, 녹번역1번출구앞,은평구,서울특별시 은평구 통일로,37.60176849,126.9354248,통일로,녹번동
1064, 신진과학기술고등학교 버스정류장(응암시장 방면),은평구,서울특별시 은평구 응암로291,37.59750366,126.9199982,응암로,응암동
1065," 불광역3,6호선 버스정류장(동명여고 방면)",은평구,서울특별시 은평구 통일로760,37.61326218,126.9278641,통일로,불광동
1066, 응암역3번 출구(서부경찰서 방면),은평구,서울특별시 은평구 은평로85 CJ드림시티 A동,37.59967041,126.91716,진흥로,역촌동
1067, 폭포동입구 교차로,은평구,서울특별시 은평구 연서로,37.62962723,126.9301148,연서로43가길,진관동
1068, 기자촌사거리,은평구,서울특별시 은평구 진관2로,37.63390732,126.931778,진관2로,진관동
1069, 청구성심병원 앞,은평구,진관2로,37.62087631,126.9197998,통일로83길,갈현동
1070, 준빌딩 앞,은평구,진관2로,37.62205124,126.9195862,통일로85길,갈현동
1071, 신사두산위브2차아파트 앞,은평구,가좌로12길,37.59931564,126.9075928,갈현로1길,신사동
1072, 녹번역e편한세상 캐슬 정문 앞,은평구,은평로220,37.60034561,126.9314804,은평로18길,응암동
1073, 불광역 9번 출구 맞은편,은평구,불광로 41,37.61156845,126.9304886,불광로,불광동
1074, 갈현1동 주민센터,은평구,은평구 갈현로 301,37.62360764,126.9168854,갈현로,갈현동
1075, 백련산 SK뷰 아이파크 해모로 아파트 앞,은평구,"은평구 응암로 278 맞은편
(응암동 767-1 공원 앞)",37.59612656,126.9196243,응암로,응암동
1076, 백련산로 녹번센트레빌,은평구,은평구 백련산로160,37.59954453,126.9265366,백련산로,응암동
1077,박석고개(은평소방서) 앞,은평구,은평구 불광동 474-2,37.62794495,126.9197693,통일로94길,불광동
1078, 은평 성모병원 사거리,은평구,은평구 통일로 1034,37.63470078,126.9173584,진관2로,진관동
1079, 응암2동주민센터 버스정류장(영락중학교 방면),은평구,은평구 백련산로 112,37.59586716,126.9234924,백련산로8길,응암동
1080, DMC역 5번 출구(수색역 방향),은평구,은평구 수색로 194,37.57890701,126.9012985,증산서길,증산동
1081, 우물골 근린공원,은평구,은평구 진관2로 60 323동 앞,37.63406754,126.9253922,진관2로,진관동
1082, 역촌센트레빌아파트 101동 앞,은평구,은평구 갈현로3나길 23 101동 앞,37.60354233,126.906723,갈현로3나길,역촌동
1083,은평서해그랑블아파트앞,은평구,은평구 서오릉로 253,37.61705017,126.9065857,서오릉로25길,구산동
1084, 마스타 빌딩 앞,서대문구,서울특별시 서대문구 연희로 7,37.55893326,126.9271164,연희로2안길,창천동
1085, 홍은사거리,서대문구,마포구 서강로1길 30 ,37.59115982,126.94133,통일로,홍은동
1086, 문화촌 공원,서대문구,서울특별시 서대문구 홍제동 277-23,37.59432983,126.9473877,세검정로3길,홍제동
1087, 신촌역(2호선) 1번출구 옆,서대문구,서울특별시 서대문구 연세로 3-5,37.55549622,126.9363403,연세로,창천동
1088, 증산2교,서대문구,서울특별시 서대문구 증가로 264,37.5841713,126.9111023,증가로,북가좌동
1089, 해담는다리,서대문구,서울특별시 서대문구 불광천길 150,37.58203125,126.9089966,응암로1길,북가좌동
1090, 연세로 명물길,서대문구,서울특별시 서대문구 명물길 33,37.55789185,126.9380798,연세로4길,창천동
1091, 명물길 원형무대 앞,서대문구,서대문구 창천동 31-69,37.55922699,126.9398422,명물길,창천동
1092, 신촌기차역입구 교차로,서대문구,서울특별시 서대문구 연세로2다길 58,37.55681229,126.9431839,신촌로,대현동
1093, 신촌동 제1공영주차장 앞,서대문구,서울특별시 서대문구 증가로 264,37.5591774,126.9345245,연세로9길,창천동
1094, 연세대 정문 건너편,서대문구,서울특별시 서대문구 연세로 42,37.55986404,126.9344177,성산로22길,창천동
1095, 이화여대 후문,서대문구,서울특별시 서대문구 연세로 50-1,37.560009,126.9407349,신촌역로,신촌동
1096, 연대 대운동장 옆,서대문구,서울특별시 서대문구 연세로 50,37.56238174,126.9326477,성산로17길,연희동
1097, 이대역 4번 출구,서대문구,서울특별시 서대문구 대현동 60-11,37.55695343,126.9463425,이화여대2길,대현동
1098,북아현동 가구거리,서대문구,서울특별시 서대문구 북아현동 251-78,37.55754852,126.9593811,신촌로,북아현동
1099, 무악재역1번 출구,서대문구,서울특별시 서대문구 통일로 380-4,37.58224487,126.9506455,통일로26길,홍제동
1100, 봉원고가차도 밑,서대문구,서울특별시 서대문구 대신동 143-1,37.56526947,126.9462433,연대동문길,대신동
1101, 명지전문대학교 정문 앞,서대문구,서울특별시 서대문구 홍은동 산25-3,37.58369827,126.9249649,명지대2안길,홍은동
1102, 북가좌1동 주민센터,서대문구,서울특별시 서대문구 북가좌동 477-1,37.57447815,126.9100494,수색로,북가좌동
1103, 중앙근린공원,서대문구,서울특별시 서대문구 북가좌동 470-1,37.57513809,126.9139404,거북골로,북가좌동
1104, 가재울 초등학교,서대문구,서울특별시 서대문구 연희동 530,37.57381821,126.9192352,모래내로15길,남가좌동
1105, 연가초등학교 옆,서대문구,서울특별시 서대문구 북가좌동 70-119,37.57946014,126.9171295,증가로,북가좌동
1106, 북가좌 삼거리,서대문구,서울특별시 서대문구 북가좌동 400,37.57300186,126.9077988,수색로,북가좌동
1107, DMC파크뷰자이아파트 302동 앞,서대문구,서울특별시 서대문구 남가좌동 124,37.57311249,126.9224472,가재울로,남가좌동
1108, 임광빌딩 앞,서대문구,미근동 317-1,37.56472397,126.9672775,통일로,미근동
1109, 서대문역 8번출구 앞,서대문구,서울특별시 서대문구 충정로2가 138,37.56477737,126.9661484,충정로,미근동
1110, 홍연2교옆,서대문구,서울특별시 서대문구 홍은동 387-16,37.57806778,126.9308853,모래내로,홍은동
1111, 명지대학교 도서관,서대문구,서울특별시 서대문구 거북골로 34,37.58109665,126.9240265,명지대1길,남가좌동
1112, 북가좌 초등학교,서대문구,서울특별시 서대문구 거북골로19길 20,37.57767487,126.9098053,거북골로,북가좌동
1113, 증산3교 앞,서대문구,서울특별시 서대문구 북가좌동 352-9,37.57987595,126.9063492,거북골로23길,북가좌동
1114, 가좌역 4번출구 앞,서대문구,서울특별시 서대문구 남가좌동 293-3 ,37.56912231,126.9147949,수색로,남가좌동
1115, 충정로역 7번출구 아래,서대문구,서울특별시 서대문구 충정로3가 56-1,37.55996704,126.9624634,충정로,충정로3가
1116, 홍은동 정원여중 입구,서대문구,서울특별시 서대문구 연희로37안길 51,37.58638763,126.9351273,연희로,홍은동
1117, 서우빌딩,서대문구,서울특별시 서대문구 응암로 66,37.57889175,126.9107361,응암로,북가좌동
1118, 연서어린이공원,서대문구,서울특별시 서대문구 연희동 519-7,37.57222748,126.9230652,홍제천로,연희동
1119, 증산교 앞,서대문구,서울특별시 서대문구 불광천길 36,37.57731628,126.9029694,수색로,북가좌동
1120, 모래내고가차도,서대문구,서울특별시 서대문구 연희동 446-76,37.56765747,126.9178085,성산로,연희동
1121, 연희교차로 인근,서대문구,서울특별시 서대문구 홍제천로 48,37.56612015,126.9258957,연희로5길,연희동
1122, 충정2교,서대문구,서울특별시 서대문구 충정로3가 155-4,37.5621376,126.9637756,충정로5길,충정로3가
1123, 북성초교,서대문구,서울특별시 서대문구 신촌로 235-1,37.55739594,126.9521637,신촌로29길,북아현동
1124, 서대문구청,서대문구,서울특별시 서대문구 연희로 242,37.57838058,126.9360962,연희로,연희동
1125, 연희삼거리,서대문구,서울특별시 서대문구 연희로 113,37.56799698,126.9316559,연희맛로,연희동
1126, 홍제삼거리 북측,서대문구,서대문구 홍제동 161-1,37.58670044,126.9467697,홍제원1길,홍제동
1127, e편한세상 신촌4단지 앞,서대문구,북아현동 251-71,37.55812836,126.9562073,신촌로37안길,북아현동
1128, 홍은센트레빌 아파트 앞,서대문구,서대문구 홍은동 164-44,37.5971489,126.93853,통일로,홍은동
1129, 연희초등학교 앞,서대문구,서대문구 연희동 87-27,37.56962967,126.9333115,연희로,연희동
1130,북한산더? 106동 앞,서대문구,홍은동 137-8 ,37.59293365,126.9412918,통일로42길,홍은동
1131,홍은 현대아이파크 아파트 202동 앞,서대문구,홍은동 202-6,37.58928299,126.9369431,홍제내길,홍은동
1132,무악재역 4번 출구,서대문구,홍제동 25-1,37.58221054,126.9501648,통일로26길,홍제동
1133,독립문역사거리,서대문구,현저동 935,37.57220459,126.9597473,통일로,현저동
1134,충정로역 3번 출구,서대문구,합동 31-16,37.56046295,126.9655228,서소문로,합동
1135,북아현 치안센터 인근,서대문구,북아현동 251-73,37.56145477,126.9557495,북아현로6길,북아현동
1136,신촌역 4번출구,서대문구,창천동 30-16,37.55550385,126.9372025,신촌로,창천동
1137,이화여대 인문관 인근,서대문구,대신동 143-14 ,37.56406784,126.9453278,연대동문길,대신동
1138,연희 브라운스톤 아파트 앞,서대문구,연희동 209-2,37.56519699,126.9298554,성산로,연희동
1139,DMC엘가아파트 앞,서대문구,남가좌동 105-4,37.56983566,126.9180908,모래내로,남가좌동
1140,가좌삼거리,서대문구,북가좌동 487-1,37.57065201,126.9129868,수색로6길,북가좌동
1141,북가좌삼거리2,서대문구,북가좌동474-1,37.5742836,126.9064636,수색로,북가좌동
1142,DMC파크뷰자이1단지 110동 앞,서대문구,남가좌동 385-13 ,37.5723877,126.9151077,가재울미래로,남가좌동
1143,연희파크푸르지오아파트 앞,서대문구,연희동 736,37.57564163,126.9278259,홍연4길,연희동
1144,남가좌동 제2공영주차장,서대문구,남가좌동 3-76,37.58334351,126.9227448,명지대5길,남가좌동
1145,홍은2파출소 옆,서대문구,서대문구 홍은동424-1,37.58333588,126.9362869,홍제내길,홍은동
1146,동신병원 맞은편,서대문구,서대문구 홍은동274-18,37.5813179,126.935997,연희로,홍은동
1147,DMC래미안e편한세상203동옆,서대문구,서대문구 북가좌동477-1,37.57626343,126.9113236,거북골로16길,북가좌동
1148,가재울사거리,서대문구,서대문구 남가좌동385-16,37.57456207,126.9179916,모래내로15길,남가좌동
1149,연가교 교차로,서대문구,서대문구 남가좌동 385-6,37.57215881,126.9211884,홍제천로,남가좌동
1150,홍제교,서대문구,서대문구 홍제동394-46,37.59186172,126.9442139,통일로40안길,홍제동
1151,핀란드 타워앞,서대문구,서대문구 대현동60-11,37.55711365,126.9488144,신촌로27길,대현동
1152,SK리쳄블(상수도사업본부),서대문구,서대문구 합동 17-3 ,37.56131744,126.9665833,청파로,합동
1153, 홍은도담도서관,서대문구,서대문구 홍은동 11-7,37.60169601,126.9491653,홍은중앙로,홍은동
1154, 래미안 루센티아 아파트 108동 앞,서대문구,서대문구 남가좌동 390,37.57515717,126.91745,거북골로12길,남가좌동
1155, 서대문자연사박물관 입구,서대문구,서대문구 연희동 150-11,37.57540131,126.9354401,연희로31길,연희동
1156, 홍남교 버스정류장,서대문구,서울시 서대문구 홍은동 415-51,37.57675552,126.9282761,증가로4길,홍은동
1157, 안산초등학교 앞,서대문구,안산초등학교 아래 육교 밑,37.57987976,126.952301,통일로,홍제동
1158,국민연금공단충정로사옥,서대문구,서울 서대문구 충정로 36,37.56184769,126.9641495,충정로4길,충정로3가
1159, 서대문역 2번 출구,서대문구,서대문구 충정로2가 8-3 ,37.56599045,126.9660721,통일로,충정로2가
1160, 연희IC 남측,서대문구,서대문구 연희로 5길,37.56355667,126.9282761,연희로,연희동
1161, 우국한마음 아파트 맞은편,서대문구,서대문구 연희동 735,37.57913971,126.9345093,홍제천로,연희동
1162, 충정로역 1번 출구,서대문구,서대문구 충정로 28-1,37.55942535,126.9630585,서소문로,충정로3가
1163, 홍남교 사거리,서대문구,서대문구 남가좌동 318-20,37.57601929,126.9268341,모래내로,남가좌동
1164, 홍연2교 사거리,서대문구,서대문구 홍은동 422-13,37.57716751,126.9290619,홍제천서자전거길,홍은동
1165, 신촌 파랑고래 입구,서대문구,서대문구 창천동 57-18,37.55687714,126.9360352,연세로5길,창천동
1166, 망원역 1번출구 앞,마포구,서울특별시 마포구 월드컵로 72,37.5556488,126.9106293,월드컵로,서교동
1167, 망원역 2번출구 앞,마포구,서울특별시 마포구 월드컵로 79,37.55495071,126.9108353,월드컵로,망원동
1168, 합정역 1번출구 앞,마포구,서울특별시 마포구 양화로 59,37.55062866,126.9149857,양화로7길,서교동
1169, 합정역 5번출구 앞,마포구,서울특별시 마포구 양화로 48,37.55000687,126.9148254,양화로7길,서교동
1170, 합정역 7번출구 앞,마포구,서울특별시 마포구 독막로 4,37.54864502,126.9128265,성지길,합정동
1171, 신한은행 서교동지점,마포구,서울특별시 마포구 월드컵북로 35,37.55751038,126.9185028,월드컵북로5길,서교동
1172, 서교동 사거리,마포구,서울특별시 마포구 양화로 93,37.55274582,126.9186173,양화로,서교동
1173, 제일빌딩 앞,마포구,서울특별시 마포구 어울마당로 26,37.54769135,126.9199829,독막로,당인동
1174, 상수역 2번출구 앞,마포구,서울특별시 마포구 와우산로 40,37.54787064,126.9235306,와우산로10길,상수동
1175, 극동방송국 앞,마포구,서울특별시 마포구 와우산로 56,37.54920197,126.9232025,독막로19길,상수동
1176, 홍대입구역 2번출구 앞,마포구,서울특별시 마포구 양화로 165,37.5574379,126.9238205,양화로,동교동
1177, 홍대입구역 8번출구 앞,마포구,서울특별시 마포구 양화로18길 3,37.55706024,126.9244232,양화로18길,동교동
1178, 광흥창역 2번출구 앞,마포구,서울특별시 마포구 독막로 지하165,37.54773331,126.9317627,창전로,창전동
1179, 서강나루 공원,마포구,서울특별시 마포구 창전로 30,37.54528427,126.9310532,창전로,창전동
1180, 신수동 사거리,마포구,서울특별시 마포구 토정로 211,37.54524231,126.9341126,신수로,신수동
1181, 마포소방서 앞,마포구,서울특별시 마포구 창전로 76,37.54976654,126.9331741,창전로2길,신수동
1182, 신성기사식당 앞,마포구,서울특별시 마포구 독막로 223-1,37.54745865,126.9383774,독막로,신수동
1183, 서강대 정문 건너편,마포구,서울특별시 마포구 서강로16길 72,37.55113983,126.9369888,백범로,신수동
1184, 서강대 남문 옆,마포구,서울특별시 마포구 백범로 35,37.54948425,126.9389496,서강대길,신수동
1185, 서강대 후문 옆,마포구,서울특별시 마포구 대흥로 122,37.55041122,126.9438477,대흥로,대흥동
1186, 현대벤처빌 앞,마포구,서울특별시 마포구 백범로 10,37.5535202,126.9369507,백범로,노고산동
1187, 신촌역(2호선) 6번출구 옆,마포구,서울특별시 마포구 신촌로 106,37.55505371,126.9375687,신촌로,노고산동
1188, 신촌역(2호선) 7번출구 앞,마포구,서울특별시 마포구 신촌로 94,37.55485916,126.9361572,신촌로,노고산동
1189, 아현역 4번출구 앞,마포구,서울특별시 마포구 아현동 329-15,37.55720139,126.9556656,굴레방로,아현동
1190, 공덕역 2번출구,마포구,서울특별시 마포구 공덕동 257-88,37.54457855,126.9502182,백범로,공덕동
1191, 공덕역 8번출구,마포구,서울특별시 마포구 공덕동 438-5,37.5435791,126.9513245,마포대로,공덕동
1192, 공덕역 5번출구,마포구,서울특별시 마포구 공덕동 237-9,37.54425049,126.9516373,마포대로,공덕동
1193, 마포역 2번출구 뒤,마포구,서울특별시 마포구 도화동 555-2,37.53993607,126.9458237,마포대로,도화동
1194, 마포역 4번출구 뒤,마포구,서울특별시 마포구 도화동 292-29,37.53927231,126.9459152,마포대로4나길,도화동
1195, 용강동 주민센터 앞,마포구,서울특별시 마포구 용강동 234-1,37.54234695,126.9430237,큰우물로,용강동
1196, 서강대역 2번출구 앞,마포구,서울특별시 마포구 노고산동 112-13,37.55295563,126.9343414,서강로14길,노고산동
1197, 성산2교 사거리,마포구,서울특별시 마포구 성산동 54-17,37.56469727,126.9126129,월드컵북로,성산동
1198, 마포구청역,마포구,서울특별시 마포구 망원동 477-23,37.56090927,126.9054947,월드컵로,망원동
1199, 가좌역1 번출구 앞,마포구,서울특별시 마포구 성산동123-29,37.56829453,126.9150467,성암로,성산동
1200, 서울서부지방법원 앞,마포구,서울특별시 마포구 공덕동 105-11,37.54933167,126.9549179,마포대로,공덕동
1201, 애오개역 4번출구 앞,마포구,서울특별시 마포구 아현동 607-1,37.5530014,126.9566879,봉작길,아현동
1202, 망원초록길 입구,마포구,서울특별시 마포구 마포나루길 467,37.55134201,126.9026718,동교로,망원동
1203, 망원2빗물펌프장 앞,마포구,서울특별시?마포구?동교로?8,37.5513649,126.9030609,동교로,합정동
1204, 하늘채코오롱아파트 건너편,마포구,서울특별시 마포구 연남로 30,37.56516647,126.9193955,연남로,연남동
1205, 7번가피자 서교망원점,마포구,서울특별시 마포구 월드컵로 119,37.55894852,126.907753,성미산로1길,성산동
1206, 마포 신수공원 앞,마포구,서울특별시 마포구 현석동 106-32,37.54254532,126.9342957,신수로3길,현석동
1207, 월드컵공원,마포구,서울특별시 마포구 하늘공원로 108-1,37.56396484,126.8982086,월드컵로,성산동
1208, 서울 월드컵 경기장,마포구,서울특별시 마포구 성산동 515,37.56684494,126.8964462,월드컵로,성산동
1209, 상암한화오벨리스크 1차 앞,마포구,서울특별시 마포구 구룡길 19,37.58752441,126.8830032,구룡길,상암동
1210, 상암월드컵파크 10단지 앞,마포구,서울특별시 마포구 월드컵북로 502-36,37.58618927,126.8816147,월드컵북로,상암동
1211, 상암월드컵파크 9단지 앞,마포구,서울특별시 마포구 월드컵북로 501,37.58285522,126.8798218,월드컵로42길,상암동
1212, 부엉이공원 앞,마포구,서울특별시 마포구 가양대로 189,37.58559036,126.8847275,가양대로,상암동
1213, DMC빌 앞,마포구,서울특별시 마포구 월드컵북로60길 13,37.58265686,126.885788,월드컵북로60길,상암동
1214, 상암월드컵파크 7단지 앞,마포구,서울특별시 마포구 월드컵로42길 22,37.58111191,126.8808746,월드컵로42길,상암동
1215, 마포구 육아종합지원센터,마포구,서울특별시 마포구 상암산로1길 71,37.58063126,126.8836746,상암산로1길,상암동
1216, LG CNS앞,마포구,서울특별시 마포구 월드컵북로 424,37.58081055,126.8866501,월드컵북로58길,상암동
1217, 누리꿈스퀘어 옆,마포구,서울특별시 마포구 월드컵북로 396,37.57939911,126.8891602,월드컵북로54길,상암동
1218, 상암중학교 옆,마포구,서울특별시 마포구 상암동 1691,37.57739258,126.8874741,상암산로1길,상암동
1219, DMC홍보관,마포구,서울특별시 마포구 월드컵북로 366,37.5779953,126.8914719,월드컵북로,상암동
1220, DMC산학협력연구센터 앞,마포구,서울특별시 마포구 매봉산로 37,37.57580185,126.8907394,매봉산로,상암동
1221, 상암월드컵파크 3단지 후문,마포구,서울특별시 마포구 매봉산로 8,37.57147598,126.8896866,상암산로,상암동
1222, 상암동주민센터 옆,마포구,서울특별시 마포구 매봉산로2길 16,37.57822037,126.8944702,매봉산로,상암동
1223, DMC역 9번출구 앞,마포구,서울특별시 마포구 성암로 지하184,37.57746887,126.8973618,성암로,상암동
1224, 상암월드컵파크 1단지 교차로,마포구,서울특별시 마포구 월드컵북로 502-7,37.57566452,126.8944473,월드컵북로,상암동
1225, DMC역 2번출구 옆,마포구,서울특별시 은평구 수색로 지하175,37.57506943,126.8999176,성암로,상암동
1226, 월드컵경기장역 3번출구 옆,마포구,서울특별시 마포구 월드컵로 지하240,37.57072067,126.8989792,성중길,성산동
1227, 홈플러스 앞,마포구,서울특별시 마포구 월드컵로 240,37.56842041,126.8994293,불광천서자전거길,성산동
1228, 서울시 공공자전거 상암센터,마포구,서울특별시 마포구 월드컵북로47길 10,37.56624603,126.8961792,월드컵로,성산동
1229, 마포구청 앞,마포구,서울특별시 마포구 월드컵로 212,37.56574631,126.9018631,월드컵로34길,성산동
1230, 문화비축기지,마포구,서울특별시 마포구 증산로 87,37.56897736,126.8944016,증산로,성산동
1231, 롯데하이마트 (상암월드컵점),마포구,서울특별시 상암동 1715-29,37.57361984,126.8980484,월드컵북로42길,상암동
1232, DMC첨단산업센터,마포구,서울특별시 마포구 성암로330,37.58450317,126.8855972,월드컵북로62길,상암동
1233, 서울신용보증재단,마포구,서울특별시 마포구 마포대로 163,37.54906082,126.9541779,마포대로,공덕동
1234, 성산시영아파트,마포구,서울특별시 마포구 월드컵북로 260,37.56958389,126.9038162,월드컵북로,성산동
1235, 마포중앙도서관,마포구,마포구 성산로 128,37.56333923,126.9082031,월드컵로30다길,성산동
1236, 이대역 5번출구,마포구,마포구 대흥동 2-1,37.55659103,126.9461899,숭문길,대흥동
1237, 대흥역 1번출구,마포구,마포구 대흥동 105-4,37.54846954,126.9409256,백범로,대흥동
1238, 성산2-1 공영주차장,마포구,마포구 성산동 199-46,37.56472015,126.9067688,새터산길,성산동
1239, 하늘공원 입구,마포구,마포구 하늘공원로 108-2,37.57012177,126.8813477,하늘공원로,상암동
1240,신석초교앞 교차로 교통섬,마포구,마포구 용강동 494-6 ,37.54364014,126.9383087,대흥로,용강동
1241,푸르메병원,마포구,마포구 상암동 632,37.58456802,126.8802109,월드컵북로,상암동
1242,구룡근린공원,마포구,마포구 상암동 1583,37.58320236,126.8827667,월드컵북로62길,상암동
1243,가온문화공원,마포구,마포구 상암동 1594,37.58207703,126.8876648,월드컵북로58길,상암동
1244,월드컵파크 4단지,마포구,마포구 상암동 1761,37.57597733,126.8880692,상암산로,상암동
1245,성산시영아파트 후문,마포구, 마포구 중동 77-11,37.57313538,126.9018478,성암로11길,중동
1246,홍대입구역 6번출구,마포구,마포구 서교동 193-4,37.55657578,126.9288559,와우산로35길,동교동
1247,신수동주민센터,마포구,마포구 신수동 458,37.54724503,126.9350281,신수로,신수동
1248,염리초등학교 앞,마포구,마포구 도화동 536,37.54243088,126.9469986,마포대로,도화동
1249,합정동주민센터 앞,마포구,마포구 합정동 473-2,37.551754,126.9123001,월드컵로5길,합정동
1250,연남동주민센터 앞,마포구,마포구 연남동 250-11,37.56465149,126.9221268,성미산로29길,연남동
1251,벽산상암스마트큐브,마포구,마포구 성산동 593-1,37.5650444,126.9036026,모래내로1길,성산동
1252,래미안신공덕3차아파트,마포구,마포구 공덕동 457,37.54554749,126.9567947,만리재로,신공덕동
1253,마포구청 청사내,마포구,마포구 월드컵로 212,37.56624603,126.9021835,월드컵로34길,성산동
1254, 상암월드컵파크5단지(상암중학교),마포구,마포구 상암동 1727,37.57948685,126.8873901,월드컵북로,상암동
1255,MBC 앞,마포구,마포구 상암동 1704,37.58194733,126.8902969,월드컵북로54길,상암동
1256,DMC역7번출구,마포구,마포구 상암동 1133,37.57711411,126.8983612,성암로,상암동
1257,서교동사거리(신),마포구,마포구 서교동 418,37.55583954,126.920433,동교로,서교동
1258,홍대입구역 3번출구,마포구,마포구 동교동 155-27,37.5582962,126.9253845,양화로,동교동
1259,경의선(노고산동),마포구,마포구 노고산동 112-12,37.55342865,126.9337921,신촌로14안길,창전동
1260, 프런트원(공덕역4번출구 앞),마포구,마포구 마포대로 122,37.54585266,126.9525986,만리재로1길,공덕동
1261, 광흥창역5번출구,마포구,마포구 창전동 246-34,37.54737854,126.931633,창전로,창전동
1262, 아만티호텔 앞,마포구,마포구 서교동 445-7,37.5573082,126.9188538,월드컵북로,서교동
1263, 스타벅스(동교동) 앞,마포구,마포구 동교동 205-6,37.5566597,126.9198685,월드컵북로,동교동
1264, 가좌행복주택 앞,마포구,마포구 중동 275,37.56949234,126.9118424,성암로,중동
1265, 시석빌딩 앞,마포구,마포구 합정동 412-34,37.5483017,126.9167175,독막로,합정동
1266, 한화오벨리스크 앞,마포구,마포구 상암동 1758,37.58332062,126.8815613,월드컵북로,상암동
1267, 마포구중앙도서관 정문 앞,마포구,마포구 성산동 275-26,37.56415558,126.9081497,성산로4길,성산동
1268, JTBC 앞,마포구,마포구 상암산로 38 ,37.57730484,126.8901825,상암산로,상암동
1269, 망원정 앞,마포구,마포구 합정동454-23,37.5500679,126.9048004,동교로8안길,합정동
