대여소 번호,보관소(대여소)명,자치구,상세주소,위도,경도,설치시기,LCD 거치대수,QR 거치대수,운영방식
301, 경복궁역 7번출구 앞,종로구,서울특별시 종로구 사직로 지하130 경복궁역 7번출구 앞,37.57579422,126.9714508,2015-10-07,20,,LCD
302, 경복궁역 4번출구 뒤,종로구,서울특별시 종로구 사직로 지하130 경복궁역 4번출구 뒤,37.57594681,126.9740601,2015-10-07,,12,QR
303, 광화문역 1번출구 앞,종로구,서울특별시 종로구 세종대로 지하189 세종로공원,37.57176971,126.9746628,2015-10-07,,8,QR
305, 종로구청 옆,종로구,서울특별시 종로구 세종로 84-1,37.57255936,126.9783325,2015-01-07,,16,QR
307, 서울역사박물관 앞,종로구,서울특별시 종로구 새문안로 55 서울역사박물관 앞,37.56999969,126.9710999,2015-10-07,,11,QR
308, 광화문 S타워 앞,종로구,서울특별시 종로구 새문안로 82 광화문S타워 앞,37.56996918,126.973938,2015-10-07,,31,QR
309, 광화문역 6번출구 옆 B,종로구,서울특별시 종로구 새문안로 102-2 가로판매대,37.56996155,126.9761581,2015-10-07,,13,QR
314, 국립현대미술관,종로구,서울특별시 종로구 삼청로 30 국립현대미술관 서울관,37.5797081,126.9808579,2015-10-07,,10,QR
316, 종각역 1번출구 앞,종로구,서울특별시 종로구 종로 47 종각역 1번출구 앞,37.57039642,126.9817886,2015-10-07,,8,QR
326, 안국역 5번출구 앞,종로구,서울특별시 종로구 율곡로 지하62 안국역 5번출구 앞,37.57624054,126.9861603,2015-10-07,19,,LCD
327, 낙원상가 옆,종로구,서울특별시 종로구 삼일대로 428 낙원상가 옆,37.57335663,126.9874649,2015-10-07,,10,QR
328, 탑골공원 앞,종로구,서울특별시 종로구 종로 99 탑골공원 앞,37.57039642,126.9881897,2015-10-07,,11,QR
329, 청계2가 사거리 옆,종로구,서울특별시 종로구 청계천로 93 파고다타워,37.56848526,126.9878845,2015-10-07,8,,LCD
334, 종로3가역 2번출구 뒤,종로구,서울특별시 종로구 종로 지하129 종로3가역 2번출구 뒤,37.5705986,126.9917908,2015-10-07,,10,QR
335, 종로3가역 15번출구 앞,종로구,서울특별시 종로구 종로 지하129 15번출구 앞,37.57019806,126.9912567,2015-10-07,,10,QR
337, 창경궁 입구,종로구,서울특별시 종로구 창경궁로 185 창경궁 입구,37.57897949,126.9964752,2015-10-07,5,,LCD
338, 세운스퀘어 앞,종로구,서울특별시 종로구 창경궁로 109 세운스퀘어 앞,37.57095718,126.9971237,2015-10-07,18,,LCD
339, 종로4가 사거리,종로구,서울특별시 종로구 종로 185 종로4가 사거리,37.57106781,126.9981918,2015-10-07,10,,LCD
340, 혜화동 로터리,종로구,서울특별시 종로구 창경궁로 271-1 혜화동 로터리,37.58562851,127.000679,2015-10-07,,8,QR
341, 혜화역 3번출구 뒤,종로구,서울특별시 종로구 대학로 지하120 혜화역 3번출구 뒤,37.58156967,127.0017853,2015-10-07,,8,QR
342, 대학로 마로니에공원,종로구,서울특별시 종로구 대학로 104 대학로 마로니에공원,37.57978439,127.002533,2015-10-07,,22,QR
343, 예일빌딩(율곡로) 앞,종로구,서울특별시 종로구 충신동 60,37.57561111,127.0046997,2015-10-07,,6,QR
344, 성균관대 E하우스 앞,종로구,서울특별시 종로구 율곡로 259 성균관대 E하우스 앞,37.57403564,127.0067215,2015-10-07,10,,LCD
345, 서울보증보험본사 앞,종로구,서울특별시 종로구 김상옥로 29 서울보증보험본사 앞,37.57330704,127.0007095,2015-10-07,18,,LCD
348, 독립문역 사거리,종로구,서울특별시 종로구 교북동 10-1 독립문역 사거리,37.57202911,126.9607849,2016-06-01,14,,LCD
349, 사직동주민센터,종로구,서울특별시 종로구 사직로9길 5 사직동주민센터,37.57633209,126.9685898,2016-06-01,7,,LCD
351, 청운초교 앞 삼거리,종로구,서울특별시 종로구 청운동 108-22 청운초교 앞 삼거리,37.58507919,126.9706192,2016-06-01,8,,LCD
352, 중앙고입구 삼거리,종로구,서울특별시 종로구 창덕궁길 191 중앙고입구 삼거리,37.58341599,126.9852371,2016-06-01,10,,LCD
353, 재동초교 앞 삼거리,종로구,서울특별시 종로구 재동 19 재동초교 앞 삼거리,37.57938766,126.9849472,2016-06-01,8,,LCD
354, 포르투갈 대사관 앞,종로구,서울특별시 종로구 창덕궁1길 3 포르투갈 대사관 앞,37.57915497,126.9889603,2016-06-01,10,,LCD
355, 서울사대부속초교 앞,종로구,서울특별시 종로구 연건동 178-3 서울사대부속초교 앞,37.57650757,127.0024567,2016-06-01,,15,QR
356, KT혜화지사 앞,종로구,서울특별시 종로구 대학로 65 KT혜화지사 앞,37.57714462,127.0020599,2016-06-01,,15,QR
358, 성대입구 사거리,종로구,서울특별시 종로구 창경궁로 234 성대입구 사거리,37.58250046,126.9985352,2016-06-01,13,,LCD
359, 원남동사거리,종로구,서울특별시 종로구 율곡로 169 원남동사거리,37.57606125,126.9976807,2016-06-01,8,,LCD
361, 동묘앞역 1번출구 뒤,종로구,서울특별시 종로구 숭인동 81-39 동묘앞역 1번출구 뒤,37.57324219,127.0159073,2016-06-01,10,,LCD
362, 청계8가 사거리,종로구,서울특별시 종로구 청계천로 407 청계8가 사거리,37.57222366,127.0227051,2016-06-01,10,,LCD
363, 신설동역 11번출구 뒤,종로구,서울특별시 종로구 종로 411-3 가로판매,37.57559204,127.02285,2016-06-01,13,,LCD
364, 창신역 1번출구 앞,종로구,서울특별시 종로구 지봉로 87 창신역 1번출구 앞,37.57933426,127.0150833,2016-06-01,,8,QR
367, 독립문역 3-1번출구,종로구,서울특별시 종로구 무악동 41-7 독립문역 3번출구 뒤,37.57384872,126.9586945,2016-06-01,,13,QR
368, SK 서린빌딩 앞,종로구,서울특별시 종로구 서린동 93-2 SK 서린빌딩 앞,37.5692482,126.9805374,2016-06-01,15,,LCD
369, 광화문 시민열린마당,종로구,서울특별시 종로구 세종로 76-5 광화문 시민열린마당,37.57549286,126.9785004,2016-06-01,,12,QR
385, 종각역 5번출구,종로구,서울특별시 종로구 서린동 26-1 종각역 5번출구,37.56983566,126.9826584,2016-07-06,10,,LCD
388, 동성중학교 앞,종로구,서울특별시 종로구 혜화동 56 동성중학교 앞,37.58573532,127.0016098,2016-09-02,10,,LCD
393, 동대문역 8번 출구,종로구,서울특별시 종로구 율곡로 지하 308 동대문역 8번출구,37.57014084,127.0093765,2018-01-26,12,,LCD
394, 경희궁 자이 3단지,종로구,서울특별시 종로구 경교장길 35 경희궁자이 3단지,37.56748962,126.9659195,2018-01-26,,15,QR
395, 경희궁 자이 2단지,종로구,서울특별시 종로구 송월길 99 경희궁 자이 3단지,37.56885529,126.9645615,2018-01-26,8,,LCD
397, 종묘공영주차장 건너편,종로구,서울특별시 종로구 종로 지하 200 종묘공영주차장 건너편,37.57048035,126.9966354,2018-04-30,13,,LCD
446, 상명대입구,종로구,서울특별시 종로구 홍지문길 1 상명대 입구,37.60012817,126.9578323,2017-08-01,13,,LCD
447, 신영동삼거리,종로구,서울특별시 종로구 진흥로 499 신영동 삼거리,37.60399246,126.9619446,2017-08-01,,6,QR
449, 일성아파트,종로구,서울특별시 종로구 평창문화로 119 일성아파트,37.60871887,126.9728622,2017-08-01,10,,LCD
450, 효자동 삼거리,종로구,서울특별시 종로구 효자로13길 45 종로구 궁정동 98-2,37.58360291,126.9725494,2017-09-07,,51,QR
451, 청와대앞길,종로구,서울특별시 종로구 청와대로 73 종로구 세종로 1-54,37.58351517,126.9796677,2017-09-07,8,,LCD
452, 동대문 종합시장 버스정류장,종로구,서울특별시 종로구 종로 239 동대문 종합시장 버스정류장,37.57123947,127.0044098,2018-10-23,,13,QR
453, 종로오가 지하쇼핑센터 14번출구,종로구,서울특별시 종로구 종로 지하 200 종로5가 지하쇼핑센터 14번출구,37.57114029,127.0006714,2018-08-31,10,,LCD
454, 종로2가 버스정류장 (종각방향),종로구,서울특별시 종로구 종로 79-1 종로2가 버스정류장 (종각방향),37.57035828,126.9863815,2018-08-31,13,,LCD
455, 종로6가역 버스정류장(동대문 방향),종로구,서울특별시 종로구 종로 254-1 삼익한의원,37.570961,127.0060577,2018-08-30,8,,LCD
456, 숭인2동 주민센터 입구,종로구,서울특별시 종로구 종로 383-1 숭인2동 주민센터 입구 (이강3대냉면),37.57447052,127.0198288,2018-08-30,10,,LCD
457, 종로꽃시장 입구 옆,종로구,서울특별시 종로구 율곡로 지하 308 종로?시장 입구 옆,37.57131958,127.0072098,2018-08-30,10,,LCD
458, 광화문역 5번출구,종로구,서울특별시 종로구 세종대로 152 일민미술관,37.56989288,126.9775696,2018-08-31,21,,LCD
461, 서울지방경찰청,종로구,서울특별시 종로구 사직로8길 31 서울지방경찰청,37.57436371,126.9723663,2018-10-29,10,,LCD
462, 신영동삼거리(북악터널방향),종로구,서울특별시 종로구 평창문화로 6-4 신영동삼거리(북악터널방향),37.60351181,126.9620667,2019-06-20,10,,LCD
464, 삼청동 골목,종로구,서울특별시 종로구 팔판길 46 삼청동 골목,37.58419037,126.9816971,2019-08-16,,10,QR
465, 삼청공원 앞,종로구,서울특별시 종로구 삼청동 25-32,37.58760452,126.9835968,2019-11-20,5,,LCD
486, 평창동주민센터 앞,종로구,서울특별시 종로구 평창문화로 65 평창동 주민센터,37.60627365,126.9683228,2019-07-01,5,,LCD
3401,창신두산아파트,종로구,서울특별시 종로구 지봉로5길 7 두산아파트,37.57376099,127.0139389,2020-06-11,,10,QR
3402,이화공영주차장,종로구,서울특별시 종로구 이화동 13-2,37.57660675,127.0055695,2020-04-19,,10,QR
3403,서울특별시 교육청,종로구,서울특별시 종로구 송월길 48 서울특별시교육청,37.5695076,126.9670105,2020-02-26,,10,QR
3404,서울특별시 중부교육지원청,종로구,서울특별시 종로구 대학로 8 수도빌딩,37.57185364,127.0023575,2020-02-03,,10,QR
3405,파크팰리스,종로구,서울특별시 종로구 사직로8길 20 경희궁 파크팰리스,37.57455063,126.9705505,2020-02-11,,12,QR
3407,안국동사거리(신),종로구,서울특별시 종로구 안국동 175-92,37.57580566,126.9833908,2020-02-10,,18,QR
3408,종로타워빌딩,종로구,서울특별시 종로구 공평동 70-4,37.57051086,126.9833679,2020-02-10,,13,QR
3410,종로3가역 8번출구,종로구,서울특별시 종로구 돈화문로10길 2,37.5724678,126.99189,2020-02-11,,10,QR
3411,종묘,종로구,서울특별시 종로구 종로 153-2 가로판매대,37.5707016,126.994812,2020-02-10,,10,QR
3412,세운상가,종로구,서울특별시 종로구 종로 152,37.5703125,126.994545,2020-02-11,,15,QR
3413,종로플레이스,종로구,서울특별시 종로구 창경궁로 120 종로플레이스,37.57320023,126.997963,2020-02-04,,22,QR
3414,종로5가역 4번출구,종로구,서울특별시 종로구 종로5가 79-2,37.57117462,127.0022278,2020-02-11,,10,QR
3415,동대문역6번출구,종로구,서울특별시 종로구 종로 302 1호선 동대문역,37.57146072,127.010788,2020-02-26,,15,QR
3416,동묘앞역 6번출구,종로구,서울특별시 종로구 창신동 397-6,37.5715332,127.0156174,2020-02-04,,15,QR
3417,창신3동주민센터,종로구,서울특별시 종로구 창신동 23-825,37.57772446,127.0152512,2020-02-03,,12,QR
3418,창신역2번 출구,종로구,서울특별시 종로구 창신동 1-105,37.57998657,127.0150604,2020-02-03,,10,QR
3419,국립어린이과학관,종로구,서울특별시 종로구 와룡동 2-85,37.58194733,126.9973679,2020-02-10,,14,QR
3420, 성균관대입구사거리,종로구,서울특별시 종로구 명륜2가 197-4,37.58327484,126.9988556,2020-02-04,,10,QR
3421,혜화역 1번출구,종로구,서울특별시 종로구 대학로 144 중원빌딩,37.58385468,127.0018539,2020-02-04,,10,QR
3422,성균관대 정문,종로구,서울특별시 종로구 명륜2가 133,37.58479691,126.9971314,2020-02-04,,23,QR
3423,현대그룹(본사),종로구,서울특별시 종로구 연지동 1-38,37.57583618,127.0006943,2020-02-04,,20,QR
3425,광화문 풍림스페이스본 1단지앞,종로구,서울특별시 종로구 사직동 9-2,37.57529068,126.968956,2020-05-04,,7,QR
3426,독립문역 2번출구 뒤,종로구,서울특별시 종로구 무악동 32-3,37.57501602,126.9575501,2020-02-11,,10,QR
3427,인왕산 아이파크 정문,종로구,서울특별시 종로구 무악동 60-5,37.57666779,126.9558487,2020-02-13,,8,QR
3428,서울미술관,종로구,서울특별시 종로구 부암동 202-1,37.59512711,126.9634934,2020-02-13,,10,QR
3429,HW컨벤션센터 앞,종로구,서울특별시 종로구 부암동 134-2,37.59725952,126.963089,2020-02-13,,10,QR
3430,구기치안센터 앞,종로구,서울특별시 종로구 비봉길 12,37.60950089,126.9566803,2020-02-13,,8,QR
3431,로제우스 레포츠센터,종로구,서울특별시 종로구 구기동 110-22,37.60760117,126.9576874,2020-02-13,,10,QR
3432,종로2가 사거리,종로구,서울특별시 종로구 종로 98 와이.비.엠 종로빌딩,37.56999207,126.9883423,2020-02-10,,15,QR
4703, 쌍용아파트2단지 정문,종로구,서울특별시 종로구 낙산길198(창신3동),37.58131409,127.0126801,2020-09-21,,8,QR
4707, 청계3가 사거리,종로구,서울특별시 종로구 관수동91-1,37.56855774,126.9921188,2020-09-22,,5,QR
4708, 조계사앞사거리,종로구,서울특별시 종로구 삼봉로95(견지동110),37.5721817,126.9828339,2020-09-22,,6,QR
4710, 자교교회 앞,종로구,서울특별시 종로구 자하문로 56 자교교회,37.58114624,126.9712372,2020-11-05,,8,QR
4711, 올림픽기념 국민생활관 로터리,종로구,서울특별시 종로구 혜화로 50,37.58983612,126.9993439,2020-09-10,,10,QR
4705, 웰니스센터(민방위교육장 앞),종로구,서울특별시 종로구 운니동 98-7,37.57752991,126.9891281,2020-12-22,,6,QR
4709, 천지인 오피스텔 앞,종로구,서울특별시 종로구 평창동 290-15,37.60469818,126.9645157,2021-02-02,,5,QR
4713, 현대 뜨레비앙 아파트 앞,종로구,서울특별시 종로구 돈화문로11가길 59,37.57528305,126.9906235,2021-02-02,,7,QR
4715, 돈의문 박물관 마을,종로구,서울특별시 종로구 새문안로 39-1 동서한의원,37.56883621,126.9695511,2021-08-18,,15,QR
4718, 광화문역 6번출구 옆 A,종로구,서울특별시 종로구 세종로 208,37.56993103,126.9764328,2022-06-07,,10,QR
4719, 종로문화원 건너편,종로구,서울특별시 종로구 중학동 10-3,37.57571411,126.9805069,2022-06-24,,15,QR
300, 정동사거리,중구,서울특별시 중구 정동길 2-1 정동사거리,37.56805038,126.9692307,2015-10-07,,6,QR
310, 청계광장 옆,중구,서울특별시 중구 세종대로 136 청계광장 옆,37.56887817,126.9774704,2015-10-07,,8,QR
318, 광교사거리 남측,중구,서울특별시 중구 남대문로 125 DGB금융센터,37.56863403,126.9823151,2015-10-07,,10,QR
320, 을지로입구역 4번출구 앞,중구,서울특별시 중구 을지로 55 명동금융센터 앞,37.56622314,126.9835892,2015-10-07,,17,QR
321, KEB 하나금융그룹 명동사옥 옆,중구,서울특별시 중구 을지로 66 한국외환은행 본점 앞,37.56546402,126.9841385,2015-10-07,15,,LCD
322, 명동성당 앞,중구,서울특별시 중구 명동길 74 명동성당 앞,37.56447601,126.986969,2015-10-07,10,,LCD
324, 신세계백화점 본점 앞,중구,서울특별시 중구 충무로1가 53-6,37.56143188,126.9806976,2015-10-07,,8,QR
331, 을지로2가 사거리 북측,중구,서울특별시 중구 을지로 79 을지로2가 사거리 북측,37.56638336,126.9872055,2015-10-07,,10,QR
332, 을지로2가 사거리 남측,중구,서울특별시 중구 을지로 100 을지로2가 사거리 남측,37.56599045,126.987793,2015-10-07,,5,QR
336, 충무로역 6번출구 앞,중구,서울특별시 중구 퇴계로 214 충무로역 3.4호선,37.56144714,126.9931107,2015-10-07,,8,QR
346, 맥스타일 앞,중구,서울특별시 중구 마장로 3 맥스타일,37.56918335,127.0098801,2015-10-07,,10,QR
347, 동대문역사문화공원역 9번출구 앞,중구,서울특별시 중구 장충단로 지하230 동대문역사문화공원역 9번출구 앞,37.56533051,127.007843,2015-10-07,18,,LCD
370, 시청역(2호선) 9번출구 뒤,중구,서울특별시 중구 서소문로 지하127 시청역(2호선) 9번출구 뒤,37.56322861,126.9748383,2016-06-15,,24,QR
371, 동대입구역 6번출구 뒤,중구,서울특별시 중구 동호로 지하256 동대입구역 6번출구 뒤,37.55887222,127.0055389,2016-06-15,,10,QR
372, 약수역 3번출구 뒤,중구,서울특별시 중구 다산로 지하122 약수역 4번출구 뒤,37.55429459,127.0112,2016-06-15,10,,LCD
374, 청구역 2번출구 앞,중구,서울특별시 중구 청구로 77 청구역 5.6호선,37.5604744,127.0140762,2016-06-15,12,,LCD
379, 서울역9번출구,중구,서울특별시 중구 세종대로 지하2 서울역9번출구,37.55599976,126.9733582,2016-06-15,7,,LCD
380, CJ제일제당 앞,중구,서울특별시 중구 동호로 330 CJ제일제당 앞,37.56386566,127.0027466,2016-06-15,8,,LCD
381, 장충체육관,중구,서울특별시 중구 장충동2가 200-99 장충체육관,37.55853271,127.0069885,2016-06-15,15,,LCD
382, 약수역 10번출구 앞,중구,서울특별시 중구 신당동 357-1 약수역 10번출구 앞,37.55519867,127.0100479,2016-06-15,7,,LCD
383, 신당역 12번 출구 뒤,중구,서울특별시 중구 신당동 99 신당역 5번 출구,37.5658493,127.0164032,2016-06-15,22,,LCD
384, 종로학원본원,중구,서울특별시 중구 청파로 456 종로학원본원 앞,37.55978012,126.9685059,2016-06-15,10,,LCD
387, 훈련원공원주차장 앞,중구,서울특별시 중구 을지로 227 훈련원공원주차장 앞,37.56699371,127.0034638,2016-07-06,10,,LCD
389, 을지로4가역 1번출구,중구,서울특별시 중구 을지로 지하 178 을지로4가역 1번출구,37.5667305,126.9966049,2017-08-03,10,,LCD
390, 충무로역 1번출구,중구,서울특별시 중구 퇴계로 212 충무로역 1번출구,37.56138992,126.9953537,2017-08-03,12,,LCD
391, 시립미술관,중구,서울특별시 중구 덕수궁길 61 서울시립미술관,37.56505203,126.9734039,2017-09-04,,8,QR
398, 을지로3가역 3번출구,중구,서울특별시 중구 을지로 지하 129 을지로3가역 3번출구,37.56655884,126.9924393,2018-10-26,8,,LCD
399, 서울역 센트럴 자이아파트,중구,서울특별시 중구 만리재로 175 서울역 센트럴 자이아파트,37.55410767,126.9654083,2018-10-12,15,,LCD
428, 명보사거리,중구,서울특별시 중구 을지로 지하 129 명보사거리,37.56439972,126.9914322,2018-10-22,10,,LCD
429, 송도병원,중구,서울특별시 중구 다산로 59-1 송도병원,37.54988861,127.0073471,2018-10-22,8,,LCD
430, 장충동먹자골목 앞,중구,서울특별시 중구 장충단로 192 KEB하나은행 장충동지점,37.56207275,127.0063171,2018-11-02,6,,LCD
431, 청계천 영도교,중구,서울특별시 중구 청계천로 400 롯데캐슬베네치아,37.5710144,127.0197449,2018-10-23,,25,QR
433, 을지로입구역 2번출구,중구,서울특별시 중구 을지로 지하 42 을지로입구역 1번출구,37.56634521,126.9822922,2018-12-14,12,,LCD
434, 신당 래미안 버스정류장,중구,서울특별시 중구 퇴계로90길 74 신당 레미안 버스정류장 (112동 인근),37.56148911,127.0239334,2018-12-06,10,,LCD
435, SK 남산빌딩,중구,서울특별시 중구 퇴계로 33 SK 남산빌딩,37.55686188,126.9756165,2018-12-06,10,,LCD
826, 서울역 서부교차로2,중구,서울특별시 중구 퇴계로 33 서울역 서부교차로2,37.55536652,126.9686432,2017-08-03,20,,LCD
441,염천교사거리,중구,서울특별시 중구 칠패로 5 서소문공원,37.55989075,126.9714966,2020-01-31,,15,QR
442,서울역 서부,중구,서울특별시 중구 퇴계로 33 서울로7017편의시설,37.55641556,126.9691925,2020-02-03,,13,QR
443,호암아트홀,중구,서울특별시 중구 세종대로7길 57-1 구두수선대207 호암아트홀,37.5621109,126.9707184,2020-01-31,,9,QR
445,대한상공회의소,중구,서울특별시 중구 세종대로 39 대한서울상공회의소,37.56015396,126.9741058,2020-01-31,,15,QR
466,롯데호텔,중구,서울특별시 중구 을지로 30 롯데호텔,37.56584167,126.9798126,2020-02-28,,13,QR
467,한국은행,중구,서울특별시 중구 남대문로3가 110-8,37.5622139,126.9808655,2020-01-31,,11,QR
468,웨스틴 조선호텔,중구,서울특별시 중구 소공로 106 서울 웨스틴조선호텔,37.56415939,126.9794846,2020-01-31,,10,QR
469,회현역 1번출구,중구,서울특별시 중구 퇴계로 72 리더스뷰남산,37.5592308,126.9801407,2020-01-31,,11,QR
470,회현역 7번출구,중구,서울특별시 중구 회현동1가 23-1,37.55974579,126.9800034,2020-01-31,,13,QR
471,회현사거리 남측,중구,서울특별시 중구 퇴계로 100 스테이트타워 남산,37.56035995,126.9826508,2020-01-31,,10,QR
472,삼일교(시그니쳐 타워),중구,서울특별시 중구 수표동 99-1,37.56787109,126.9884033,2020-01-30,,12,QR
473,을지로4가역 9번출구,중구,서울특별시 중구 을지로 170,37.56605148,126.9979858,2020-03-01,,20,QR
474,동대문역사문화공원역 1번출구 뒤편,중구,서울특별시 중구 을지로7가 143,37.56629944,127.0084915,2020-01-29,,40,QR
475,DDP 패션몰,중구,서울특별시 중구 신당동 853,37.56764984,127.0118103,2020-01-29,,21,QR
476,광희문,중구,서울특별시 중구 광희동2가 105-32,37.56443024,127.0099564,2020-01-29,,10,QR
477,앰배서더 호텔 주변,중구,서울특별시 중구 장충동2가 191-65,37.55928802,127.0026856,2020-01-30,,10,QR
479,동대입구역 3번 출구,중구,서울특별시 중구 장충동2가 199-4,37.55937576,127.0060272,2020-01-30,,10,QR
480,약수역 6번 출구,중구,서울특별시 중구 다산로 122 약수역 3호선,37.55432129,127.010704,2020-01-30,,8,QR
481,신당역 10번 출구,중구,서울특별시 중구 다산로 269 광희초등학교,37.56703186,127.0157929,2020-01-29,,16,QR
483,남산타운아파트 버스정류장,중구,서울특별시 중구 다산로 32 남산타운,37.54758453,127.0064392,2020-01-29,,12,QR
484,도동삼거리,중구,서울특별시 중구 남창동 205-4,37.55614853,126.9774246,2020-02-13,,12,QR
485,서울역5번출구,중구,서울특별시 중구 세종대로 2 서울역 1호선,37.55677032,126.9731979,2020-02-03,,10,QR
4752, 삼성사이버빌리지아파트,중구,서울특별시 중구 중림로 10 중림동 삼성 사이버 빌리지,37.55891418,126.964859,2021-02-02,,7,QR
4753, 시청역 10번출구,중구,서울특별시 중구 서소문로 103,37.56284332,126.9726181,2020-11-03,,10,QR
4760, 서울역 7번출구,중구,서울특별시 중구 남대문로5가 84-11,37.55664444,126.9736404,2020-10-26,,10,QR
4761, 중부경찰서앞사거리 건너편,중구,서울특별시 중구 초동 107-12,37.56474304,126.9909515,2020-10-19,,10,QR
4762, 국제빌딩,중구,서울특별시 중구 남대문로 109,37.56693268,126.9825821,2020-09-23,,10,QR
4765, 동대문디자인플라자,중구,서울특별시 중구 을지로6가 18-169,37.5683136,127.0094605,2020-10-19,,20,QR
4766, 서소문성지역사박물관,중구,서울특별시 중구 중림동 373,37.56024551,126.9687805,2020-10-05,,23,QR
4768, 서울도시건축전시관,중구,서울특별시 중구 태평로1가 60-20,37.5670166,126.9768372,2021-03-18,,12,QR
4772, 중앙일보,중구,서울특별시 중구 서소문동58-6,37.56253433,126.972496,2020-10-05,,10,QR
4774, 을지로입구역 8번출구,중구,서울특별시 중구 을지로1가 140-1,37.56590271,126.981781,2020-09-23,,9,QR
4775, 을지로지하쇼핑센터,중구,서울특별시 중구 을지로 66 하나금융그룹 명동사옥,37.56589127,126.9844513,2020-09-24,,10,QR
3013,서울지방고용노동청 앞,중구,서울특별시 중구 삼일대로 363 장교빌딩,37.56761551,126.9872437,2020-10-29,,10,QR
4776, 신세계면세점,중구,서울특별시 중구 충무로1가 54-2,37.56005478,126.9809418,2020-10-19,,10,QR
4777, 약수동 주민센터,중구,서울특별시 중구 다산로96,37.55281448,127.0091934,2021-05-17,,8,QR
4778, 대신파이낸스센터,중구,서울특별시 중구 삼일대로 343-1 가로판매대38,37.56520844,126.9873962,2020-10-19,,10,QR
4781, 브라운스위트레지던스,중구,서울특별시 중구 중립동 340-1,37.56147003,126.9680176,2020-10-05,,10,QR
4782, 서소문역사공원,중구,서울특별시 중구 의주로2가 16-6,37.56157303,126.9684906,2020-10-05,,10,QR
4784, 중부경찰서앞 사거리,중구,서울특별시 중구 저동2가 22-1,37.56459045,126.9907684,2020-10-19,,10,QR
4785, 롯데시티호텔,중구,서울특별시 중구 장교동 74,37.56689835,126.9877396,2020-10-19,,8,QR
4791, 명동역9번 출구,중구,서울특별시 중구 퇴계로 135-14 구두수선대124,37.56122589,126.9874954,2020-10-19,,10,QR
4792, 퇴계로4가 교차로(중구청),중구,서울특별시 중구 퇴계로 235 남산 센트럴 자이,37.5625267,126.9983139,2021-02-02,,10,QR
4793, 동대문역사문화공원역 5번출구,중구,서울특별시 중구 광희동 1가 202-5,37.56430817,127.0064774,2021-02-02,,10,QR
4794, 서울역 서부교차로(3),중구,서울특별시 중구 중구 한강대로 405,37.55540848,126.9694214,2021-04-13,,8,QR
4796, 부산은행,중구,서울특별시 중구 무교로 6,37.5664711,126.9792557,2021-03-09,,10,QR
4797, KG타워 앞,중구,서울특별시 중구 통일로 92 케이지타워,37.56339645,126.9689407,2021-06-01,,13,QR
4798, 황학동롯데캐슬,중구,서울특별시 중구 중구 청계천로 400,37.57162094,127.0220413,2021-07-15,,10,QR
4800, 필동 삼거리,중구,서울특별시 중구 서애로 33 티엔에스빌딩,37.55969238,126.9964829,2022-03-07,,5,QR
4801, 충정로역 2호선(엘리베이터 앞),중구,서울특별시 중구 서소문로 18 에이원빌딩,37.55937576,126.9641419,2022-03-04,,5,QR
6053, 중부세무서 앞,중구,서울특별시 중구 남학동 12-1,37.56092453,126.9906616,2022-10-18,,5,QR
800, 목월공원 앞,용산구,서울특별시 용산구 원효로4가 109-10 목월공원 앞,37.53243256,126.9547424,2016-06-29,15,,LCD
802, 한강진역 2번 출구 앞,용산구,서울특별시 용산구 한남동 726-494 한강진역 2번 출구 앞,37.54115295,127.0022125,2016-06-29,10,,LCD
803, 한남초교 앞 보도육교,용산구,서울특별시 용산구 한남동 725-17 한남초교 앞 보도육교,37.53813934,127.004097,2016-06-29,10,,LCD
805, 문배어린이공원 앞,용산구,서울특별시 용산구 문배동 34-10 문배어린이공원 앞,37.53675842,126.9700012,2016-06-29,9,,LCD
806, 전자랜드 본관 앞,용산구,서울특별시 용산구 한강로3가 16-8 전자랜드 본관 앞,37.5330658,126.9607315,2016-06-29,20,,LCD
807, 서울역 12번 출구 앞,용산구,서울특별시 용산구 동자동 14-229 서울역 12번 출구 앞,37.55227661,126.9726868,2016-06-29,,10,QR
808, 서빙고동 금호맨션 앞,용산구,서울특별시 용산구 서빙고동 235-5 서빙고동 금호맨션 앞,37.520504,126.9897385,2016-06-29,,10,QR
809, 한남 유수지 복개주차장,용산구,서울특별시 용산구 독서당로 18 한남 유수지 복개주차장,37.53016663,127.0074387,2016-06-29,,10,QR
810, 이태원지하보도,용산구,서울특별시 용산구 용산동2가 5-1812 이태원지하보도,37.53841019,126.9866486,2016-06-29,10,,LCD
811, 녹사평역1번출구,용산구,서울특별시 용산구 용산동2가 6-7 녹사평역1번출구,37.53507996,126.9853821,2016-06-29,,20,QR
812, 용산전쟁기념관,용산구,서울특별시 용산구 용산동1가 8-4 용산전쟁기념관,37.53483963,126.9776611,2016-06-29,10,,LCD
813, 삼각지역 3번출구,용산구,서울특별시 용산구 한강로1가 228-1 삼각지역 3번출구,37.53351212,126.9722748,2016-06-29,,20,QR
815, LIG강촌아파트 103동앞,용산구,서울특별시 용산구 이촌동301-5 LIG강촌아파트 103동앞,37.51850891,126.9787979,2016-06-29,,30,QR
816, 신용산역 6번출구 앞,용산구,서울특별시 용산구 한강대로 115 신용산역 6번출구 앞,37.53014755,126.968483,2016-07-06,20,,LCD
817, 삼각지역 4번출구 앞,용산구,서울특별시 용산구 한강대로 161 삼각지역 4번출구 앞,37.53345108,126.9717331,2016-07-06,9,,LCD
818, 숙명여대 입구 교차로,용산구,서울특별시 용산구 청파로47길 100 숙명여대 입구 교차로,37.54489517,126.9693832,2016-07-06,12,,LCD
819, 선린인터넷 고등학교,용산구,서울특별시 용산구 원효로97길 33-4 선린인터넷 고등학교,37.54165268,126.9705048,2016-07-06,12,,LCD
820, 청파동입구 교차로,용산구,서울특별시 용산구 한강대로 349 청파동입구 교차로,37.54902649,126.9719467,2016-07-06,10,,LCD
822, 이촌1동 마을공원,용산구,서울특별시 용산구 이촌로 219 이촌1동 마을공원,37.52202606,126.9661865,2016-07-06,,10,QR
823, 효창동주민센터 앞,용산구,서울특별시 용산구 효창원로 161 효창동주민센터 앞,37.54232025,126.9619598,2016-07-06,,10,QR
825, 서빙고동 주민센터 앞,용산구,서울특별시 용산구 서빙고로 279 서빙고동 주민센터 앞,37.52033615,126.9942627,2016-07-06,15,,LCD
827, 국군복지단,용산구,서울특별시 용산구 두텁바위로 54-99 국군복지단,37.54188538,126.97966,2017-11-28,14,,LCD
828, 숙대입구역 8번,용산구,서울특별시 용산구 한강대로 289 숙대입구역 8번,37.54407883,126.9720001,2017-11-28,7,,LCD
829, 베르가모앞,용산구,서울특별시 용산구 한강대로 23 베르가모앞,37.52293015,126.9616928,2017-11-28,40,,LCD
830, 청암자이아파트앞,용산구,서울특별시 용산구 원효로 35 청암자이아파트앞,37.53442383,126.9485703,2017-11-28,10,,LCD
831, 이태원관광특구입구,용산구,서울특별시 용산구 이태원로 134 이태원관광특구입구,37.53427887,126.9885635,2017-11-28,10,,LCD
832, 이촌1동 주민센터 뒤,용산구,서울특별시 용산구 이촌로71길 24 이촌1동 주민센터 뒤,37.5212822,126.973465,2017-12-22,20,,LCD
834, 효창공원앞역 3번출구 뒤,용산구,서울특별시 용산구 백범로 지하 287 효창공원앞역 3번출구 뒤,37.53900909,126.96138,2017-12-22,15,,LCD
835, 남영역 건너편,용산구,서울특별시 용산구 한강대로77길 18 남영역 건너편,37.54198074,126.9715424,2017-12-22,10,,LCD
836, 현대자동차서비스 앞,용산구,서울특별시 용산구 원효로 74 현대자동차서비스 앞,37.53142166,126.9514999,2017-12-22,15,,LCD
837, 한남나들목 입구,용산구,서울특별시 용산구 서빙고로 417 한남나들목 입구,37.52906036,127.0067291,2017-12-22,10,,LCD
838, 숙대입구역 4번출구,용산구,서울특별시 용산구 한강대로 지하 306 숙대입구역 4번출구,37.5444603,126.9723892,2018-12-14,8,,LCD
839, 보광동 삼성리버빌아파트 앞,용산구,서울특별시 용산구 보광로5길 40 보광동 삼성리버빌아파트 앞,37.5240097,127.0014496,2018-12-14,10,,LCD
840, 용산 파크타워 앞,용산구,서울특별시 용산구 서빙고로 67 용산 파크타워 앞,37.52365112,126.9702683,2018-10-14,10,,LCD
841, 신용산역 1번 출구,용산구,서울특별시 용산구 한강대로 100 신용산역 1번 출구,37.52960968,126.9688721,2018-10-12,,30,QR
843, 녹사평역 광장,용산구,서울특별시 용산구 이태원로 134 녹사평역 광장,37.53379822,126.9886704,2018-10-07,,19,QR
844, 이촌2동 동원베네스트 아파트 앞,용산구,서울특별시 용산구 이촌로14길 7 이촌2동 동원베네스트 아파트 앞,37.5271492,126.9551621,2018-10-19,15,,LCD
845, 용산 선인상가,용산구,서울특별시 용산구 새창로 181 선인상가,37.53269958,126.9643784,2018-09-09,16,,LCD
846, 용산중학교,용산구,서울특별시 용산구 두텁바위로 74 용산중학교,37.54650116,126.9809494,2018-12-14,15,,LCD
848, 삼각지12번 출구,용산구,서울특별시 용산구 이태원로 29 전쟁기념관,37.53488922,126.9756241,2020-03-28,,10,QR
849, 삼각지 자이아파트,용산구,서울특별시 용산구 한강대로 205 용산파크자이,37.53607941,126.9734192,2020-03-30,,20,QR
850, KCC용산월츠타워,용산구,서울특별시 용산구 백범로90길 34 구두수선대,37.53739929,126.9689255,2020-03-28,,15,QR
851,효창 푸르지오 앞,용산구,서울특별시 용산구 백범로 260 효창파크 푸르지오,37.54047775,126.9581146,2020-03-28,,10,QR
852,청암자이APT(103동),용산구,서울특별시 용산구 삼개로 60 천년명가 청암자이,37.53452682,126.9471817,2020-03-28,,30,QR
853,용산역 맞은편,용산구,서울특별시 용산구 한강로2가 409-2,37.52856827,126.9656906,2020-04-07,,19,QR
854,HID 유족동지회 앞,용산구,서울특별시 용산구 이태원로 287 6호선 한강진역,37.53872681,127.0015488,2020-04-05,,10,QR
855,이촌역5번출구 앞,용산구,서울특별시 용산구 서빙고로 83 4호선 이촌역,37.52272415,126.9727707,2020-04-07,,10,QR
857, 현대 안성타워,용산구,서울특별시 용산구 이태원로 261-1 구두수선대,37.53502274,126.9980545,2020-04-07,,10,QR
858,녹사평역3번 출구,용산구,서울특별시 용산구 용산동4가 10-4,37.53440857,126.9868927,2020-04-07,,10,QR
859,남산공원 야외식물원 앞,용산구,서울특별시 용산구 이태원동 259-16,37.54188538,126.9958649,2020-04-05,,10,QR
860,LG한강 자이아파트 앞,용산구,서울특별시 용산구 이촌동 429,37.52074814,126.9708252,2020-04-07,,22,QR
863,이촌역2번 출구,용산구,서울특별시 용산구 용산동5가 17,37.52177048,126.977005,2020-04-07,,10,QR
864,순천향대학병원(한남오거리),용산구,서울특별시 용산구 한남동 704-11,37.53514099,127.0060043,2020-04-05,,10,QR
865,하얏트호텔 앞,용산구,서울특별시 용산구 한남동 산10-138,37.54079437,126.9978485,2020-04-05,,10,QR
866,브라운스톤 남산아파트,용산구,서울특별시 용산구 후암로 65 브라운스톤 남산아파트,37.551548,126.9768601,2020-03-30,,10,QR
867,서빙고역 광장(1번출구),용산구,서울특별시 용산구 서빙고동 241-37,37.51990891,126.9892349,2020-04-07,,10,QR
869,노들섬 동측 앞,용산구,서울특별시 용산구 이촌동 303-8,37.51729584,126.9591446,2020-04-03,,10,QR
870,노들섬 서측 앞,용산구,서울특별시 용산구 이촌동 304-11,37.51731873,126.9582977,2020-04-03,,10,QR
4602, 숙명여대앞 버스정류소 주변,용산구,서울특별시 용산구 청파로47길 99,37.54498672,126.9643021,2020-10-29,,10,QR
4603, 한강GS에클라트 건너편 교통섬,용산구,서울특별시 용산구 원효로4가 113-54,37.53200531,126.9555588,2021-06-25,,10,QR
4604, 원효로다목적체육관 앞,용산구,서울특별시 용산구 원효로3가 54-14,37.5332222,126.9572372,2020-10-30,,15,QR
4605," 노들섬 다목적홀(동쪽) 숲, 앞",용산구,서울특별시 용산구 이촌동 303-15,37.51758957,126.9592209,2020-10-30,,10,QR
4607, 국립중앙박물관 -용산가족공원 앞,용산구,서울특별시 용산구 용산동6가 11-438,37.52087784,126.9797134,2020-10-29,,10,QR
4608, 국립중앙박물관 정문 앞,용산구,서울특별시 용산구 용산동6가 11-438,37.52145767,126.9776764,2020-10-30,,10,QR
4609, 파크타워 104동 앞,용산구,서울특별시 용산구 서빙고로 69 파크타워아파트,37.52330017,126.9720612,2020-10-30,,10,QR
4610, 한남나인원 105동 앞,용산구,서울특별시 용산구 한남대로 91,37.53591919,127.0054169,2020-10-29,,10,QR
4611, 국제루터교회 앞,용산구,서울특별시 용산구 한남대로 148,37.54143906,127.0037613,2020-10-29,,10,QR
4612, 한남 준 JFSS 앞,용산구,서울특별시 용산구 이태원로 255,37.53749847,127.0008469,2020-10-29,,8,QR
4613, 서울갤러리아 앞,용산구,서울특별시 용산구 이태원로 239,37.53599548,126.9994888,2020-10-29,,7,QR
4615, 크라운호텔앞 버스정류소,용산구,서울특별시 용산구 녹사평대로 140,37.53030014,126.9913788,2020-10-29,,7,QR
4616, 신용산지하차도 앞,용산구,서울특별시 용산구 한강로3가 6,37.53248215,126.964119,2020-10-30,,15,QR
4617, 동원베네스트 건너편,용산구,서울특별시 용산구 한강로3가 37-2,37.52761078,126.9551163,2020-10-30,,6,QR
4618, 풍전아파트 건너편,용산구,서울특별시 용산구 원효로4가 114-38,37.53237915,126.9525299,2020-10-30,,10,QR
4619, 한강트럼프월드3차 앞,용산구,서울특별시 용산구 한강대로 26,37.52301788,126.96241,2020-10-30,,10,QR
4620, 삼각지역 14번 출구 앞(교통섬),용산구,서울특별시 용산구 이태원로 6,37.53528595,126.974083,2020-10-29,,8,QR
4621, 남산도서관 앞,용산구,서울특별시 용산구 소월로 109 남산도서관,37.55240631,126.9820175,2022-03-04,,12,QR
4622, 한강중학교 앞 버스정류장,용산구,서울특별시 용산구 녹사평대로73,37.5251503,126.9920883,2020-10-29,,6,QR
4623, 라인프랜즈이태원점 앞,용산구,서울특별시 용산구 이태원로 177 6호선 이태원역,37.53453064,126.9961929,2020-10-29,,10,QR
4625, 용산공원갤러리앞,용산구,서울특별시 용산구 한강로1가 1-1,37.5393219,126.9731903,2020-11-03,,8,QR
4627, 효창공원앞역 5번출구 옆,용산구,서울특별시 용산구 용문동 5-47,37.53851318,126.9635544,2020-10-29,,7,QR
4629, 한강초교보도육교 앞,용산구,서울특별시 용산구 한강대로 52-1,37.52544022,126.9645996,2020-10-30,,8,QR
4632, 용산 푸르지오 파크타운 1단지 앞,용산구,서울특별시 용산구 용산구 동빙고동 315,37.52529526,126.9958344,2021-07-14,,6,QR
4633, 센트럴파크타워 앞,용산구,서울특별시 용산구 한강로2가 220-4,37.52703476,126.9661789,2021-08-18,,8,QR
4634, 이태원역 3번 출구,용산구,서울특별시 용산구 이태원로 186 국민은행,37.53440094,126.9946671,2022-03-16,,5,QR
4636, 용산구꿈나무종합타운 앞,용산구,서울특별시 용산구 원효로2가 1-73,37.53786087,126.9656525,2022-06-08,,8,QR
4637, 용산시티파크 101동 앞,용산구,서울특별시 용산구 한강로3가 64,37.52468109,126.9681931,2022-06-09,,10,QR
4638, 청파동삼거리 앞,용산구,서울특별시 용산구 청파로 312,37.54733658,126.9703827,2022-06-09,,10,QR
4639, 동빙고근린공원,용산구,서울특별시 용산구 용산동6가 69-170,37.51794052,126.9837036,2022-06-09,,10,QR
4640, 원효로2가 교차로,용산구,서울특별시 용산구 원효로53길 4,37.53577805,126.9622116,2022-09-07,,8,QR
4641, 아메리칸센터,용산구,서울특별시 용산구 이태원로 59,37.54039001,126.9734955,2022-09-14,,10,QR
4642, 용산더프라임아파트 101동 앞,용산구,서울특별시 용산구 문배동 44,37.53930283,126.9705048,2022-10-17,,10,QR
3511, 응봉역 1번출구,성동구,서울특별시 성동구 고산자로 123 응봉동 3-10,37.55125046,127.0351028,2017-11-01,10,,LCD
3513, 상왕십리역 1번출구,성동구,서울특별시 성동구 하왕십리동 860-1 상왕십리역 1번출구,37.56460953,127.0291977,2017-11-01,15,,LCD
3514, 왕십리교회옆,성동구,서울특별시 성동구 상왕십리동 350-1 왕십리교회옆,37.56626129,127.0236969,2017-11-01,10,,LCD
3515, 서울숲 관리사무소,성동구,서울특별시 성동구 성수동1가 678-1 서울숲 관리사무소,37.54281616,127.0420837,2017-11-01,20,,LCD
3525, 금호스포츠센터앞,성동구,서울특별시 성동구 금호로 30 독서당 인문아카데미센터,37.54608917,127.0250702,2018-10-24,15,,LCD
3527, 왕십리 자이아파트,성동구,서울특별시 성동구 난계로 100 왕십리 자이아파트 103동 인근,37.56179047,127.0243912,2018-10-24,5,,LCD
3530, 왕십리자이아파트 후문(삼거리),성동구,서울특별시 성동구 무학봉길 35 왕십리자이아파트 후문(삼거리),37.56014633,127.0263596,2018-10-24,10,,LCD
3531, 논골사거리(금호도서관 입구),성동구,서울특별시 성동구 난계로 20 논골사거리(금호도서관 입구),37.55477905,127.0248413,2018-10-24,10,,LCD
3532, 왕십리KCC스위첸아파트,성동구,서울특별시 성동구 무학봉길 35 왕십리KCC스위첸아파트,37.56068039,127.0267792,2018-10-24,9,,LCD
3538, 서울숲 IT캐슬,성동구,서울특별시 성동구 광나루로 130 서울숲 IT캐슬,37.55089188,127.0447617,2018-10-29,9,,LCD
506, 금호 어울림 아파트 앞,성동구,서울특별시 성동구 광나루로 249 송정금호어울림 아파트 앞,37.54906082,127.0577927,2015-10-07,7,,LCD
508, 성수아카데미타워 앞,성동구,서울특별시 성동구 성수이로 118 라성아카데미타워 앞,37.54516602,127.0575104,2015-10-07,10,,LCD
509, 이마트 버스정류소 옆,성동구,서울특별시 성동구 뚝섬로 379 이마트 버스정류소 옆,37.53965378,127.0525894,2015-10-07,,25,QR
510, 서울숲 남문 버스정류소 옆,성동구,서울특별시 성동구 왕십리로11길 9 서울숲남문 버스정류소 옆,37.54122162,127.0438004,2015-10-07,,15,QR
511, 서울숲역 5번 출구 옆,성동구,서울특별시 성동구 왕십리로 지하77 서울숲역 4번 출구 옆,37.54458237,127.0446091,2015-10-07,16,,LCD
512, 뚝섬역 1번 출구 옆,성동구,서울특별시 성동구 아차산로 18 뚝섬역 1번 출구 옆,37.5485611,127.0450058,2015-10-07,,15,QR
513, 뚝섬역 5번 출구 정류소 옆,성동구,서울특별시 성동구 아차산로 18 뚝섬역 5번 출구 정류소 옆,37.54630661,127.0498047,2015-10-07,,13,QR
514, 성수사거리 버스정류장 앞,성동구,서울특별시 성동구 아차산로 171 성수사거리 버스정류장 앞,37.54257965,127.0633087,2015-10-07,,12,QR
518, 청계천 박물관 앞,성동구,서울특별시 성동구 마장동 610 청계천 박물관 앞,37.57152557,127.0353546,2016-06-29,,20,QR
519, 양지사거리,성동구,서울특별시 성동구 홍익동 590 양지사거리,37.56699371,127.0299149,2016-06-29,,20,QR
520, 상왕십리역 4번 출구 앞,성동구,서울특별시 성동구 하왕십리동 960-3 상왕십리역 4번 출구 앞,37.56385803,127.0303192,2016-06-29,,8,QR
521, 왕십리역 11번 출구 앞,성동구,서울특별시 성동구 행당동 188-9 왕십리역 11번 출구 앞,37.56144714,127.0349197,2016-06-29,,14,QR
522, 금호역 1번출구 앞,성동구,서울특별시 성동구 금호동3가 1575-3 금호역 1번출구 앞,37.5486412,127.0164261,2016-06-29,,9,QR
523, 옥수동성당 옆,성동구,서울특별시 성동구 옥수동 산5-148 옥수동성당 옆,37.54366302,127.014061,2016-06-29,,7,QR
524, 래미안금호하이리버 아파트 102동 옆,성동구,서울특별시 성동구 금호동2가 1220-1 래미안금호하이리버 아파트 102동 옆,37.55220032,127.0250549,2016-06-29,,10,QR
525, 한양대병원사거리,성동구,서울특별시 성동구 행당동 20-2 한양대병원사거리,37.55805206,127.0403519,2016-06-29,,20,QR
526, 용답토속공원 앞,성동구,서울특별시 성동구 용답동 224-1 용답토속공원 앞,37.56351089,127.0567246,2016-06-29,,10,QR
529, 장한평역 8번 출구 앞,성동구,서울특별시 성동구 용답동 224-3 장안평역 8번 출구 앞,37.56137085,127.0636597,2016-06-29,,8,QR
530, 청계벽산아파트 앞,성동구,서울특별시 성동구 하왕십리동 286-24 청계벽산아파트 텐즈힐아파트 정류소,37.56874847,127.0304031,2016-06-29,9,,LCD
533, 금남시장 교차로,성동구,서울특별시 성동구 금호동4가 1101 우리은행 금호동 지점 앞,37.54814911,127.0210877,2016-06-29,7,,LCD
534, 금호사거리,성동구,서울특별시 성동구 금호동2가 1205-1 금호사거리,37.54863358,127.0257263,2016-06-29,,10,QR
535, 응봉삼거리,성동구,서울특별시 성동구 응봉동 134-26 응봉삼거리,37.5539856,127.0335922,2016-06-29,,11,QR
536, 행당역 2번출구 앞,성동구,서울특별시 성동구 행당동 347-11 행당역 2번출구 앞,37.55735016,127.029213,2016-06-29,8,,LCD
537, 한양대후문역 부근,성동구,서울특별시 성동구 행당동 10 한양대후문역 부근 (양키캔들 앞),37.56035614,127.0413971,2016-06-29,10,,LCD
538, 답십리역 8번출구 앞,성동구,서울특별시 성동구 용답동 102-1 답십리역 8번출구 앞,37.56764984,127.0511551,2016-06-29,15,,LCD
550, 서울시설공단 앞,성동구,서울특별시 성동구 마장동 610 서울시설공단 앞,37.57164001,127.0356598,2016-06-29,,15,QR
556, 달맞이공원,성동구,서울특별시 성동구 금호동4가 367-1 달맞이공원,37.54205322,127.020401,2016-07-06,14,,LCD
557, 도선동 주민센터 앞,성동구,서울특별시 성동구 무학로10길 6 도선동 주민센터 앞,37.56764221,127.0256958,2016-07-06,10,,LCD
558, 성동광진 교육지원청 앞,성동구,서울특별시 성동구 고산자로 260 성동광진 교육지원청 앞,37.56460571,127.0365219,2016-07-06,20,,LCD
559, 왕십리역 4번 출구 건너편,성동구,서울특별시 성동구 왕십리광장로 10-1 왕십리역 4번 출구 건너편,37.56109619,127.0367966,2016-07-06,,13,QR
560, 비전교회 앞,성동구,서울특별시 성동구 동일로 213 비전교회 앞,37.55120468,127.0689316,2016-07-06,,8,QR
561, 서울숲역 2번출구 앞,성동구,서울특별시 성동구 왕십리로 64 서울숲역 2번출구 앞,37.54281616,127.0446701,2016-07-06,10,,LCD
562, 군자지하보도 앞,성동구,서울특별시 성동구 동일로 313 군자지하보도 앞,37.55924606,127.07341,2016-07-06,10,,LCD
563, 성동세무서 건너편,성동구,서울특별시 성동구 광나루로 302 성동세무서 건너편,37.5479126,127.0627518,2016-07-06,10,,LCD
564, 금호역 3번출구,성동구,서울특별시 성동구 동호로 99 금호역 3번출구,37.54792786,127.0155716,2016-07-06,15,,LCD
565, 옥수역 3번출구,성동구,서울특별시 성동구 옥수동 192-2,37.54136658,127.0177612,2016-07-06,,19,QR
567, 성수역 2번출구 앞,성동구,서울특별시 성동구 아차산로 113 성수역 2번출구 앞,37.54459,127.0570831,2016-07-06,,15,QR
568, 청계8가사거리 부근,성동구,서울특별시 성동구 청계천로 417 청계8가사거리 부근,37.57110214,127.0235596,2016-07-06,10,,LCD
569, 응봉현대아파트 정류소,성동구,서울특별시 성동구 독서당로 381 응봉동현대아파트 정류소,37.54958344,127.0302429,2016-07-06,10,,LCD
578, 성동세무서 부근,성동구,서울특별시 성동구 광나루로 297 성동세무서,37.54829025,127.0624619,2016-07-06,8,,LCD
579, 마장역 4번출구,성동구,서울특별시 성동구 마장로 292-1 마장역 4번출구,37.56520462,127.0418472,2016-07-06,8,,LCD
582, 경일중학교 앞,성동구,서울특별시 성동구 성수일로 27 경일중학교 앞,37.54317856,127.0490799,2016-07-06,10,,LCD
583, 청계천 생태교실 앞,성동구,서울특별시 성동구 마장로39길 51 청계천 생태교실 앞,37.56797028,127.0468903,2016-07-06,20,,LCD
585, 성수2가1동 공영주차장 인근,성동구,서울특별시 성동구 성수동2가 569-3 성수2가1동 공영주차장 인근,37.53680801,127.0554886,2016-09-02,9,,LCD
586, 마장동 주민센터,성동구,서울특별시 성동구 마장로42길 14 마장동 주민센터,37.56594086,127.0453949,2016-09-02,10,,LCD
587, 유니베라 앞,성동구,서울특별시 성동구 성수동2가 276-5 KEB하나은행 성수중앙지점,37.54541779,127.0526428,2016-09-20,10,,LCD
589, 성수역3번출구,성동구,서울특별시 성동구 아차산로 100 성수동2가 315-105,37.54415894,127.0566559,2017-04-19,8,,LCD
594, 중랑물재생센터(서울새활용플라자),성동구,서울특별시 성동구 자동차시장길 49 중랑물재생센터,37.55836487,127.0569077,2017-08-28,15,,LCD
3544,한양대역 3번 출구,성동구,서울특별시 성동구 왕십리로 190-1 디자인노점,37.55453873,127.0437775,2020-04-13,,10,QR
3545,한양대역 1번출구,성동구,서울특별시 성동구 행당동 33,37.55657959,127.0433579,2020-04-13,,10,QR
3547,상왕십리역 6번 출입구,성동구,서울특별시 성동구 하왕십리동 903-1,37.56438065,127.0288696,2020-04-14,,12,QR
3548,뚝섬역 6번출구,성동구,서울특별시 성동구 뚝섬로1길 63 영창디지털타워,37.54695892,127.0476685,2020-06-05,,10,QR
3549,건영아파트 앞,성동구,서울특별시 성동구 동일로 265 건영아파트상가,37.55514145,127.071106,2020-05-11,,9,QR
3550,금호나들목,성동구,서울특별시 성동구 금호로 15 서울숲푸르지오아파트,37.54404068,127.023201,2020-04-16,,20,QR
3551,성동도로사업소,성동구,서울특별시 성동구 자동차시장길 11 대승모터스,37.55979919,127.0563278,2020-04-14,,10,QR
3552,서울숲 공영주차장앞,성동구,서울특별시 성동구 성수동1가 719,37.54195786,127.0427704,2020-04-13,,19,QR
3553,마장역3번출구,성동구,서울특별시 성동구 마장로 302,37.565979,127.0431137,2020-04-14,,10,QR
3555,양지사거리(센트라스APT 115동앞),성동구,서울특별시 성동구 왕십리로 410 센트라스,37.56681824,127.0291519,2020-04-14,,10,QR
3556,신금호파크자이APT앞,성동구,서울특별시 성동구 금호동2가 1-5,37.55610657,127.019783,2020-04-15,,10,QR
3557,서울숲리버뷰자이APT105동 앞,성동구,서울특별시 성동구 행당동 379-1,37.55653,127.0391312,2020-04-13,,8,QR
3558,마장동 금호어울림APT앞,성동구,서울특별시 성동구 마장동 336-11,37.56339645,127.0418701,2020-04-14,,10,QR
3559,성동구민종합체육센터 앞,성동구,서울특별시 성동구 성수동1가 685-632,37.54590988,127.0446014,2020-04-13,,10,QR
3560,성동구 견인차량 보관소 앞,성동구,서울특별시 성동구 천호대로78길 9,37.56370926,127.0564499,2020-04-14,,10,QR
3561,행당동 삼부APT후문,성동구,서울특별시 성동구 왕십리로 278-17 행당동삼부아파트상가,37.55926895,127.0383987,2020-04-14,,10,QR
3600,사근빗물펌프장 건너편,성동구,서울특별시 성동구 사근동 241-1,37.56119156,127.0496826,2020-07-03,,7,QR
4353, 코오롱디지털타워 3차앞,성동구,서울특별시 성동구 아차산로 39-1 구두수선대,37.54655838,127.0499878,2020-11-03,,8,QR
4360, 르노삼성자동차 성수사업소 앞,성동구,서울특별시 성동구 광나루로270,37.54824448,127.0595779,2020-11-03,,15,QR
4362, 행당중학교 후문,성동구,서울특별시 성동구 왕십리로189,37.5540123,127.0415497,2020-11-03,,8,QR
4363, 신금호역 2번출구 앞,성동구,서울특별시 성동구 신금호역 2번출구,37.55507278,127.0198898,2021-06-25,,4,QR
4367, kt 행당빌딩 앞,성동구,서울특별시 성동구 성동구 고산자로 212,37.55862045,127.0343552,2021-04-26,,5,QR
4370, 서울숲IT캐슬 앞,성동구,서울특별시 성동구 성동구 광나루로 130,37.55141449,127.044754,2021-05-26,,9,QR
4373, 서울숲 지식산업센터,성동구,서울특별시 성동구 서울 성동구 성수일로 10. 서울숲 itct 지식산업센터 앞,37.54127502,127.0484924,2021-10-27,,8,QR
4377, 우영테크노센터 앞,성동구,서울특별시 성동구 성동구 아차산로 144,37.54332352,127.0597153,2021-10-28,,8,QR
4381, 더스페이스타워 앞,성동구,서울특별시 성동구 광나루로 144 더 스페이스 타워,37.55140305,127.0463638,2022-02-10,,8,QR
4382, 페코텍글로벌허브빌딩 앞,성동구,서울특별시 성동구 동일로 169,37.54753494,127.0668259,2022-02-10,,7,QR
4383, 푸조비즈타워 앞,성동구,서울특별시 성동구 성동구 광나루로 310,37.54808044,127.0646133,2022-02-10,,4,QR
4385, 용답동 우체국 주변,성동구,서울특별시 성동구 천호대로 384,37.56168747,127.0615158,2022-07-11,,5,QR
4386, 현대자동차 동부서비스센터 주변,성동구,서울특별시 성동구 성수이로 134 현대자동차써비스(주)동부사업소,37.546978,127.0579681,2022-08-23,,5,QR
4387, 성수역 1번출구 주변,성동구,서울특별시 성동구 아차산로 83 에프투텔레콤,37.54555893,127.0533676,2022-08-23,,8,QR
4388, 하우스디세종타워 앞,성동구,서울특별시 성동구 성수일로10길 26 하우스디 세종타워,37.54644394,127.0533218,2022-09-07,,10,QR
3500, 군자역2번출구,광진구,서울특별시 광진구 능동로 313 군자역2번출구,37.55758667,127.0796967,2017-11-01,7,,LCD
3501, 광진구청 앞,광진구,서울특별시 광진구 자양로 131 광진구청 앞,37.53950119,127.0830002,2017-11-01,10,,LCD
3502, 중곡역 1번출구,광진구,서울특별시 광진구 능동로 지하 417 중곡역 1번출구 앞,37.56565857,127.0842972,2017-11-01,,18,QR
3503, 광진유진스웰,광진구,서울특별시 광진구 아차산로78길 7 광진유진스웰,37.55048752,127.1089554,2017-11-01,20,,LCD
3504, 원일교회,광진구,서울특별시 광진구 아차산로 304 원일교회,37.53805161,127.0765991,2017-11-01,8,,LCD
3505, 신양초교앞 교차로,광진구,서울특별시 광진구 능동로 42 신양초교앞 교차로,37.5352211,127.0683975,2017-11-01,12,,LCD
3506, 영동대교 북단,광진구,서울특별시 광진구 자양동 203-22 영동대교 북단,37.53701401,127.0610962,2017-11-01,10,,LCD
3507, 어린이회관,광진구,서울특별시 광진구 능동 465-7 어린이회관,37.54595184,127.0780029,2017-11-01,39,,LCD
3508, 화양사거리,광진구,서울특별시 광진구 화양동 21-6 화양사거리,37.54822159,127.0678787,2017-11-01,,7,QR
3509, 세종사이버대학교,광진구,서울특별시 광진구 군자동 111-2 세종사이버대학교,37.55341721,127.0731964,2017-11-01,,20,QR
3510, 중곡SK아파트앞,광진구,서울특별시 광진구 용마산로32길 32 중곡SK아파트앞,37.56864929,127.0862503,2018-03-23,10,,LCD
3516, 구의아리수정수센터앞,광진구,서울특별시 광진구 광나루로 571 구의아리수정수센터앞,37.54370499,127.0932465,2017-11-28,15,,LCD
3517, 용마사거리,광진구,서울특별시 광진구 능동로 373 용마사거리,37.5625267,127.0822754,2017-11-28,10,,LCD
3518, 군자역 7번출구뒤,광진구,서울특별시 광진구 천호대로 지하 550 군자역 7번출구 뒤,37.55686188,127.0791397,2017-11-28,8,,LCD
3520, 광진경찰서,광진구,서울특별시 광진구 자양로 167 광진경찰서,37.54251862,127.0840836,2018-02-26,10,,LCD
3521, 현대홈타운 뒷길,광진구,서울특별시 광진구 아차산로69길 29 현대홈타운 뒷길,37.54342651,127.0966187,2018-02-26,10,,LCD
3523, 건국대학교 과학관(이과대) 앞,광진구,서울특별시 광진구 능동로 120 건국대학교 과학관(이과대) 앞,37.54171753,127.0801697,2018-04-16,10,,LCD
3524, 세종대학교,광진구,서울특별시 광진구 군자로 114 세종대학교,37.55023575,127.073822,2018-04-09,15,,LCD
3528, 광진정보도서관,광진구,서울특별시 광진구 아차산로78길 90 광진정보도서관,37.55059814,127.1105118,2018-10-29,8,,LCD
3529, 어린이대공원정문,광진구,서울특별시 광진구 능동로 216 어린이대공원정문,37.54978943,127.0759277,2018-10-31,15,,LCD
3533, 건대입구역 사거리(롯데백화점),광진구,서울특별시 광진구 능동로 92 건대입구역 사거리(롯데백화점),37.53913879,127.0706177,2018-10-29,10,,LCD
3534, 건대입구역 5번출구 뒤,광진구,서울특별시 광진구 아차산로 236 건대입구역 5번출구 뒤,37.54013824,127.0692825,2018-10-29,12,,LCD
3536, 중앙농협(자양동),광진구,서울특별시 광진구 뚝섬로 639 중앙농협(자양동),37.53181076,127.0807419,2018-10-29,10,,LCD
3537, 아차산 휴먼시아 아파트 옆,광진구,서울특별시 광진구 천호대로 716 아차산 휴먼시아 아파트 옆,37.54848862,127.0937576,2018-10-29,15,,LCD
3541, 커먼그라운드,광진구,서울특별시 광진구 아차산로 200 커먼그라운드,37.54124832,127.06604,2018-11-14,20,,LCD
3542, 래미안 구의파크 스위트,광진구,서울특별시 광진구 광나루로 545 래미안파크스위트,37.5450058,127.0900345,2018-11-14,17,,LCD
500, 어린이대공원역 3번출구 앞,광진구,서울특별시 광진구 능동로 지하210 어린이대공원역 3번출구 앞,37.54706955,127.0742722,2015-10-07,10,,LCD
501, 광진구의회 앞,광진구,서울특별시 광진구 능동로 76 광진구의회 앞,37.53730774,127.0703507,2015-10-07,,30,QR
502, 뚝섬유원지역 1번출구 앞,광진구,서울특별시 광진구 능동로 10 뚝섬유원지역 1번출구 앞,37.53186035,127.0671921,2015-10-07,,33,QR
505, 자양사거리 광진아크로텔 앞,광진구,서울특별시 광진구 아차산로 355 타워더모스트 광진아크로텔,37.53701019,127.0822449,2015-10-07,,12,QR
515, 광양중학교 앞,광진구,서울특별시 광진구 자양로3길 7 광양중학교 앞,37.53023529,127.0868301,2015-10-07,15,,LCD
516, 광진메디칼 앞,광진구,서울특별시 광진구 광나루로 355 광진메디컬앞,37.54840469,127.0693665,2015-10-07,,10,QR
539, 군자교교차로,광진구,서울특별시 광진구 중곡동 263-1 군자교교차로,37.55979538,127.0742035,2016-06-29,,10,QR
540, 군자역 7번출구 베스트샵 앞,광진구,서울특별시 광진구 군자동 499 군자역 7번출구 베스트샵 앞,37.55603027,127.0786438,2016-06-29,8,,LCD
542, 강변역 4번출구 뒤,광진구,"서울특별시 광진구 구의동 546-6 강변역 1,4번 출구 아래",37.53546524,127.0944824,2016-06-29,,19,QR
543, 구의공원(테크노마트 앞),광진구,서울특별시 광진구 구의동 546-3 구의공원(테크노마트 앞),37.53596878,127.0946732,2016-06-29,,20,QR
544, 광남중학교,광진구,서울특별시 광진구 광장동 561-15 광남중학교,37.54072952,127.1029053,2016-06-29,20,,LCD
546, 잠실대교북단 교차로,광진구,서울특별시 광진구 자양동 722 잠실대교북단 교차로,37.53247833,127.0850906,2016-06-29,8,,LCD
548, 자양나들목,광진구,서울특별시 광진구 자양동 738 자양나들목,37.5297699,127.0748596,2016-06-29,20,,LCD
549, 아차산역 3번출구,광진구,서울특별시 광진구 구의동 96 아차산역 3번출구,37.55122375,127.0897064,2016-06-29,10,,LCD
551, 구의삼성쉐르빌 앞,광진구,서울특별시 광진구 구의강변로 106 구의삼성쉐르빌 앞,37.54006195,127.0944977,2016-07-06,13,,LCD
552, 대림아크로리버 앞,광진구,서울특별시 광진구 구의강변로 64 대림아크로리버 앞,37.53657913,127.0929718,2016-07-06,9,,LCD
553, 중곡 성원아파트 앞,광진구,서울특별시 광진구 동일로 459 중곡 성원APT 앞,37.57125473,127.0798035,2016-07-06,19,,LCD
555, 구의3동주민센터,광진구,서울특별시 광진구 강변역로 17 구의3동주민센터,37.53784943,127.0921707,2016-07-06,9,,LCD
571, 세종대학교 대양AI센터,광진구,서울특별시 광진구 군자동 98-22,37.55039597,127.0758591,2016-07-06,,20,QR
573, 구의문주차장 앞,광진구,서울특별시 광진구 능동로 216 구의문주차장 앞,37.54523087,127.0847321,2016-07-06,10,,LCD
574, 아차산역4번출구,광진구,서울특별시 광진구 능동로 216 아차산역4번출구,37.55184937,127.0889816,2016-07-06,45,,LCD
575, 대원중고교 입구(대하빌딩),광진구,서울특별시 광진구 용마산로 120 중앙농협 중곡지점,37.56429291,127.086937,2016-07-06,10,,LCD
576, 광나루역 3번 출구,광진구,서울특별시 광진구 아차산로 552 광나루역 3번 출구,37.54483032,127.1042633,2016-07-06,10,,LCD
577, 광진청소년수련관,광진구,서울특별시 광진구 구천면로 2 광진청소년수련관,37.54654694,127.1061325,2016-07-06,,10,QR
584, 광진광장 교통섬,광진구,서울특별시 광진구 군자동 374-8 광진광장 교통섬,37.54782867,127.0726318,2016-09-02,20,,LCD
588, 뚝섬 유원지역,광진구,서울특별시 광진구 능동로 10 뚝섬유원지역,37.53268814,127.0674973,2016-12-09,,20,QR
590, 건국대학교 (입학정보관),광진구,서울특별시 광진구 능동로 120 입학정보관,37.53989029,127.0733643,2017-08-30,20,,LCD
591, 건국대학교 (행정관),광진구,서울특별시 광진구 능동로 120 행정관,37.54277802,127.0753708,2017-08-30,5,,LCD
592, 건국대학교 학생회관,광진구,서울특별시 광진구 능동로 120 학생회관,37.54191208,127.0776367,2017-08-30,30,,LCD
593,자양중앙나들목,광진구,서울특별시 광진구 자양강변길 301 광진구 자양2동 705,37.52858734,127.0778732,2017-10-18,,8,QR
3543, 세종대학교(학술정보원),광진구,서울특별시 광진구 능동로 209 세종대학교,37.55137253,127.07444,2019-12-16,15,,LCD
3563,구의7단지현대아파트,광진구,서울특별시 광진구 구의강변로3가길 33 구의7단지조합현대아파트,37.53680038,127.0908356,2020-06-09,,5,QR
3564,나루마당,광진구,서울특별시 광진구 구의동 175-1,37.54707336,127.0982895,2020-04-14,,10,QR
3566,우성4차아파트,광진구,서울특별시 광진구 자양동 712,37.53507233,127.0761108,2020-04-14,,10,QR
3569,건대병원후문,광진구,서울특별시 광진구 화양동 4-1,37.53956604,127.0724411,2020-05-07,,12,QR
3570,구의역 리버비스타 오피스텔,광진구,서울특별시 광진구 아차산로 417,37.53809738,127.0890198,2020-04-14,,10,QR
3571,화양 APT(횡단보도 옆),광진구,서울특별시 광진구 화양동 24-33,37.54434967,127.0654068,2020-04-13,,15,QR
3573,광나루안전체험관,광진구,서울특별시 광진구 능동 18,37.5513382,127.0767136,2020-04-13,,15,QR
3575, 자양사거리(서원빌딩),광진구,서울특별시 광진구 아차산로 360 서원빌딩,37.53657532,127.0825806,2020-04-14,,6,QR
3578,중곡동 파크웨이빌딩,광진구,서울특별시 광진구 천호대로 611,37.55500793,127.0858154,2020-04-14,,9,QR
3579,광진 캠퍼스시티,광진구,서울특별시 광진구 화양동 21-62,37.54788971,127.0674515,2020-04-13,,20,QR
3581,광진광장,광진구,서울특별시 광진구 군자동 374-10,37.54747009,127.073967,2020-04-16,,15,QR
3582,화양동 우체국,광진구,서울특별시 광진구 화양동 18-39,37.54798889,127.0695038,2020-04-13,,14,QR
3586,군자역 비채온 오피스텔,광진구,서울특별시 광진구 군자동 473-26,37.55771255,127.0772705,2020-04-14,,8,QR
3587,우성식품 앞,광진구,서울특별시 광진구 구의동 201-2,37.54246521,127.0942307,2020-05-07,,15,QR
3588,세종대학교(영실관),광진구,서울특별시 광진구 군자로 114 세종초등학교,37.55237198,127.0735397,2020-05-07,,10,QR
3853, 어린이대공원역 2번출구,광진구,서울특별시 광진구 광진구 능동 463-1,37.54764938,127.074707,2020-12-09,,18,QR
3860, 건국대학교 정문 앞,광진구,서울특별시 광진구 광진구 광나루로 416,37.5465126,127.0757141,2020-12-09,,10,QR
3863, 동일로58길 입구,광진구,서울특별시 광진구 광진구 동일로 296,37.55775452,127.0729752,2020-12-10,,10,QR
3864, 광진소방서 앞,광진구,서울특별시 광진구 광진구 광나루로 486,37.5450058,127.083374,2020-12-09,,11,QR
3865, 이튼타워리버 2차,광진구,서울특별시 광진구 광진구 능동로 50,37.53520966,127.0690002,2020-12-09,,8,QR
3868, 자양한강도서관,광진구,서울특별시 광진구 광진구 뚝섬로52길 58,37.52916336,127.0779877,2020-12-10,,10,QR
3873, 동서울우편집중국 앞,광진구,서울특별시 광진구 광진구 자양로 80,37.53470993,127.0844727,2020-12-10,,8,QR
3878, 장로회신학대학교 주기철 기념관,광진구,서울특별시 광진구 광장로5길 25-1 장로회신학대학교,37.54983902,127.1030273,2020-12-14,,15,QR
3879, 중랑천 뚝방길 산책로 입구,광진구,서울특별시 광진구 광진구 동일로 399,37.56628036,127.0774765,2021-06-01,,7,QR
3881, 신자초교입구 교차로,광진구,서울특별시 광진구 뚝섬로 596,37.53298569,127.0757904,2021-07-01,,7,QR
3880, 홍련봉 공원,광진구,서울특별시 광진구 광진구 천호대로 717-18,37.54896927,127.0935288,2021-05-18,,13,QR
3882, 자양2동 주민센터,광진구,서울특별시 광진구 자양로3가길 28,37.52879333,127.0846329,2021-07-23,,3,QR
3886,광진구 민방위교육센터,광진구,서울특별시 광진구 구의동 623-1,37.5391922,127.0980148,2021-09-24,,5,QR
3891,군자역4번출구,광진구,광진구 중곡동 341-27,37.55681229,127.0810776,2022-12-12,,7,QR
600, 휘경2동 주민센터,동대문구,서울특별시 동대문구 한천로 329 휘경2동 주민센터,37.58991241,127.0686798,2016-06-29,,10,QR
601, 용신동주민센터,동대문구,서울특별시 동대문구 용두동 65-25 용신동주민센터,37.57594681,127.0373612,2016-06-29,10,,LCD
602, 장안동 사거리,동대문구,서울특별시 동대문구 장한로 25길 2 장안동 사거리,37.57217407,127.0713882,2016-06-29,,10,QR
605, 신설동역8번출구,동대문구,서울특별시 동대문구 천호대로 26 신설동역9번출구,37.57419968,127.0264969,2016-06-29,8,,LCD
606, 휘경공고앞,동대문구,서울특별시 동대문구 겸재로 21 휘경공고앞,37.58462524,127.0702896,2016-06-29,15,,LCD
607, 신이문역 2번출구,동대문구,서울특별시 동대문구 이문동186-1 신이문역 2번출구,37.60271072,127.0678635,2016-06-29,15,,LCD
608, 전농삼성아파트,동대문구,서울특별시 동대문구 전농로 192 전농삼성아파트,37.58131027,127.0553436,2016-06-29,10,,LCD
609, 제기2교,동대문구,서울특별시 동대문구 제기동 122-388,37.58774567,127.037384,2016-06-29,30,,LCD
610, 동대문중 교차로,동대문구,서울특별시 동대문구 답십리동 524-1 동대문중 교차로,37.57308578,127.0521622,2016-06-29,,10,QR
612, 시립동부병원 앞 사거리,동대문구,서울특별시 동대문구 용두동 237-10 시립동부병원 앞 사거리,37.57366562,127.0308151,2016-06-29,,20,QR
613, 신설동역 10번출구 앞,동대문구,서울특별시 동대문구 신설동 92-34 신설동역 10번출구 앞,37.57527161,127.023468,2016-06-29,8,,LCD
614, 용두동 사거리,동대문구,서울특별시 동대문구 용두동 237-10 용두동 사거리,37.57768631,127.0310135,2016-06-29,,23,QR
615, 용두동 래미안허브리츠아파트 앞,동대문구,서울특별시 동대문구 용두동 696-13 용두동 레미안허브리츠아파트 앞,37.57638168,127.0351105,2016-06-29,,25,QR
616, 서울시립대 앞,동대문구,서울특별시 동대문구 전농동 135-5 시립대 앞,37.58256149,127.0543671,2016-06-29,10,,LCD
617, 청솔우성아파트 앞,동대문구,서울특별시 동대문구 답십리동 94-2 청솔우성아파트 앞,37.57420349,127.0576935,2016-06-29,,20,QR
621, 동대문중학교 옆,동대문구,서울특별시 동대문구 전농동 693-1,37.57489014,127.0535355,2016-07-06,8,,LCD
622, 전농사거리 교통섬,동대문구,서울특별시 동대문구 사가정로 119 전농사거리 교통섬(전농서적 앞),37.57779312,127.0578308,2016-07-06,15,,LCD
623, 서울시립대 정문 앞,동대문구,서울특별시 동대문구 서울시립대로 161 서울시립대 정문 앞(시더프라자빌딩 앞),37.58369827,127.0538559,2016-07-06,25,,LCD
624, 전농동 동아아파트 앞,동대문구,서울특별시 동대문구 서울시립대로 31 전농동 동아아파트 앞(T-World 앞 보도),37.57418823,127.0458908,2016-07-06,,10,QR
626, 군자교 서측 녹지대,동대문구,서울특별시 동대문구 장한로6길 95 군자교녹지대 동측 앞,37.56115341,127.0709686,2016-07-06,,17,QR
627, 장안동삼거리 교통섬,동대문구,서울특별시 동대문구 사가정로 240 장안동삼거리 교통섬,37.57863235,127.071907,2016-07-06,,10,QR
628, 휘봉고등학교 앞,동대문구,서울특별시 동대문구 한천로 290 휘봉고등학교 앞,37.58681488,127.067543,2016-07-06,,15,QR
630, 동대문구 보건소,동대문구,서울특별시 동대문구 천호대로 145 동대문구 보건소,37.57485199,127.0403061,2016-07-06,,15,QR
631, 답십리역 1번출구,동대문구,서울특별시 동대문구 천호대로 269 답십리역 1번출구,37.5681839,127.0512772,2016-07-06,15,,LCD
633, 청량리 기업은행 앞,동대문구,서울특별시 동대문구 홍릉로 1 청량리 기업은행 앞,37.58040619,127.0448227,2016-07-06,8,,LCD
634, 외국어대 정문 앞,동대문구,서울특별시 동대문구 이문로 107 외국어대 정문 앞,37.59601974,127.0598297,2016-07-06,24,,LCD
635, 시조사 앞,동대문구,서울특별시 동대문구 이문로1길 11 시조사 앞 (청량고정문 옆),37.58751678,127.0527725,2016-07-06,12,,LCD
636, 세종대왕기념관 교차로,동대문구,서울특별시 동대문구 회기로 56 세종대왕기념관 교차로,37.59090042,127.0425873,2016-07-06,9,,LCD
637, KAIST 경영대학 앞,동대문구,서울특별시 동대문구 회기로 85 KAIST 경영대학 앞,37.59161377,127.0457916,2016-07-06,10,,LCD
638, 서울시립대 정보기술관,동대문구,서울특별시 동대문구 한천로43길 12-14 서울시립대 정보기술관,37.58300781,127.0609741,2016-07-06,10,,LCD
639, 서울시립대 후문,동대문구,서울특별시 동대문구 한천로43길 12-14 서울시립대 후문,37.58519745,127.0609512,2016-07-06,,14,QR
640, 동대문경찰서 교차로,동대문구,서울특별시 동대문구 홍릉로 26-1 거리가게,37.58255005,127.0446014,2016-07-06,6,,LCD
641, 용두역 4번출구,동대문구,서울특별시 동대문구 청계천로 563 용두역 4번출구,37.57375336,127.0385361,2016-07-06,10,,LCD
642, 신답역 사거리,동대문구,서울특별시 동대문구 천호대로 231,37.57035446,127.0484314,2016-07-06,,9,QR
643, 동대문구민체육센터 (육교아래),동대문구,서울특별시 동대문구 장안동 473-6,37.56697083,127.074295,2016-07-06,10,,LCD
646, 장한평역 1번출구,동대문구,서울특별시 동대문구 장한로 3-1 구두수선대,37.56196594,127.0645065,2017-11-28,10,,LCD
647, 신이문역 1번출구,동대문구,서울특별시 동대문구 신이문로 44 신이문역 1번출구,37.60279846,127.0672684,2017-11-28,10,,LCD
648, 장안동위더스빌옆,동대문구,서울특별시 동대문구 한천로 42 장안동위더스빌옆,37.56669998,127.0624237,2017-11-28,15,,LCD
650, 중랑교사거리,동대문구,서울특별시 동대문구 망우로 131 중랑교사거리,37.59153366,127.0677414,2017-11-28,20,,LCD
652, 답십리 래미안엘파인아파트 입구,동대문구,서울특별시 동대문구 사가정로 190 답십리 래미안엘파인아파트 입구,37.57653046,127.0659409,2018-11-04,10,,LCD
654, 전농동 텃골공원,동대문구,서울특별시 동대문구 사가정로 65 전농동 텃골공원,37.57762146,127.0521088,2017-11-28,10,,LCD
656, 영휘원 교차로,동대문구,서울특별시 동대문구 홍릉로 78-1 영휘원 교차로,37.58723831,127.0431366,2018-10-22,10,,LCD
657, 동대문롯데캐슬아파트 앞,동대문구,서울특별시 동대문구 전농동 695-5,37.57551956,127.0487747,2018-10-22,13,,LCD
659, 제기역1번출구,동대문구,서울특별시 동대문구 왕산로 87 제기역1번출구,37.57835007,127.0333862,2018-10-22,25,,LCD
660, 동의보감타워,동대문구,서울특별시 동대문구 왕산로 128 동의보감타워,37.57799911,127.0376282,2018-10-22,10,,LCD
661, 경희대학교 청운관,동대문구,서울특별시 동대문구 경희대로 23 경희의료원,37.59460068,127.0519714,2018-08-30,15,,LCD
663, 외대앞역 4번출구,동대문구,서울특별시 동대문구 휘경로14가길 31 외대앞역 4번출구,37.59489059,127.0630264,2018-12-14,10,,LCD
664, 서울시립대 건설공학관,동대문구,서울특별시 동대문구 서울시립대로 163 서울시립대학교,37.58412933,127.0579376,2019-11-20,10,,LCD
665,이문동 쌍용아파트 정문,동대문구,서울특별시 동대문구 한천로58길 47 쌍용아파트,37.59960556,127.0686417,2020-04-19,,11,QR
666,이문대성유니드아파트 앞,동대문구,서울특별시 동대문구 한천로58길 151 이문동대성유니드아파트,37.60362244,127.0708313,2020-04-21,,20,QR
667,청량차도 육교 밑,동대문구,서울특별시 동대문구 청량리동 49,37.58659363,127.0469971,2020-04-19,,7,QR
668,서울축산농협(장안지점),동대문구,서울특별시 동대문구 장한로 79,37.56799698,127.068779,2020-04-22,,10,QR
669,청계한신휴플러스앞 삼거리,동대문구,서울특별시 동대문구 서울시립대로 14 청계한신휴플러스,37.57214737,127.0446091,2020-04-19,,10,QR
670,삼육서울병원 버스정류장,동대문구,서울특별시 동대문구 망우로 74,37.58968735,127.061409,2020-04-22,,9,QR
671,대광빌딩,동대문구,서울특별시 동대문구 신설동 81-197,37.57734299,127.0233765,2020-03-27,,10,QR
672,대광고등학교,동대문구,서울특별시 동대문구 안암로 6 대광중고등학교,37.57875061,127.024025,2020-03-27,,17,QR
673,안암골벽산아파트(후문),동대문구,서울특별시 동대문구 약령시로 25 안암골 벽산아파트,37.58407974,127.0310364,2020-03-28,,10,QR
674,고대앞사거리 교통섬,동대문구,서울특별시 성북구 안암동5가 40-11,37.58655167,127.0331421,2020-03-30,,15,QR
676,FITI시험연구원 앞,동대문구,서울특별시 동대문구 제기동 891-2,37.58143234,127.0354767,2020-03-28,,9,QR
677,청량리역 4번 5번출구 사이,동대문구,서울특별시 동대문구 왕산로 202-1 가로판매대,37.5801506,127.0457993,2020-04-19,,20,QR
678,장안힐스테이트(아) 앞,동대문구,서울특별시 동대문구 장안벚꽃로1길 7 장안 힐스테이트,37.57655716,127.0743103,2020-04-26,,21,QR
679,전농SK아파트 앞,동대문구,서울특별시 동대문구 사가정로 150,37.57787704,127.0616837,2020-04-16,,10,QR
680,꿈마루어린이도서관 앞,동대문구,서울특별시 동대문구 이문동 346-131,37.59238434,127.0574112,2020-04-19,,22,QR
681,서울특별시 동부교육지원청(육교),동대문구,서울특별시 동대문구 전농로 168 서울동부교육지원청,37.5798378,127.0563736,2020-04-19,,14,QR
4102, 휘경1동주민센터 앞,동대문구,서울특별시 동대문구 외대역동로6길 3,37.59286499,127.0655594,2020-09-18,,7,QR
4103, 휘경sk뷰아파트 앞,동대문구,서울특별시 동대문구 휘경로 71 맞은편,37.59383774,127.0678177,2020-09-18,,10,QR
4104, 외대앞역 교차로,동대문구,서울특별시 동대문구 외대역동로 67 맞은편,37.59436417,127.0645981,2020-09-18,,10,QR
4105, 서울교통공사사거리 교통섬,동대문구,서울특별시 동대문구 천호대로 343,37.56324005,127.057991,2020-09-18,,10,QR
4107, 장안동근린공원 입구,동대문구,서울특별시 동대문구 장한로 191 동대문구청소년독서실,37.57739639,127.0718536,2020-09-18,,10,QR
4108, 답십리파크자이아파트 앞,동대문구,서울특별시 동대문구 답십리로56길 124,37.5676918,127.0578919,2020-09-18,,10,QR
4110, 용두롯데캐슬리치아파트 앞,동대문구,서울특별시 동대문구 용두동 150-32,37.57958603,127.0302429,2020-09-21,,10,QR
4113, 한국국방연구원 앞,동대문구,서울특별시 동대문구 회기로 37 한국국방연구원,37.59139633,127.0402985,2020-09-17,,10,QR
4114, 휘경여중고삼거리,동대문구,서울특별시 동대문구 한천로 264 맞은편,37.58392334,127.0682755,2020-09-18,,10,QR
4116, 이문e편한세상아파트 앞,동대문구,서울특별시 동대문구 한천로63길 10 이문e편한세상아파트,37.60460281,127.0669251,2020-09-18,,10,QR
4117, 휘경119안전센터 앞,동대문구,서울특별시 동대문구 망우로 114,37.59087372,127.065361,2020-09-21,,10,QR
4121, 서울문화재단 앞,동대문구,서울특별시 동대문구 청계천로 517,37.57130051,127.0336227,2020-09-21,,15,QR
4122, 청계9가교차로 앞,동대문구,서울특별시 동대문구 청계천로 471,37.57014847,127.0299225,2020-09-21,,10,QR
4123, 배봉초교 교차로,동대문구,서울특별시 동대문구 사가정로 200,37.57846832,127.0668945,2020-09-18,,10,QR
4125, 회기역 2-①번출구,동대문구,서울특별시 동대문구 휘경동 267-10,37.58945084,127.0595627,2021-10-01,,8,QR
4128, 종암초등학교 뒤(새울센스빌),동대문구,서울특별시 동대문구 약령시로 20 새울센스빌,37.58265686,127.0319672,2022-10-12,,5,QR
4131, 베네스트 오피스텔 앞,동대문구,서울특별시 동대문구 무학로 134-2 구두수선대,37.57817078,127.0317001,2022-10-28,,8,QR
1401, 극동늘푸른아파트,중랑구,서울특별시 중랑구 동일로 941 중랑구 묵동 189-2,37.61473846,127.0763626,2017-04-26,15,,LCD
1402, 금란주차장 앞,중랑구,서울특별시 중랑구 망우로 448 금란주차장 앞,37.60007095,127.1023331,2017-04-26,10,,LCD
1403, 중화빌딩 앞 (동부시장),중랑구,서울특별시 중랑구 망우로 211 중화빌딩,37.59424973,127.0765762,2017-04-26,15,,LCD
1404, 동일로 지하차도,중랑구,서울특별시 중랑구 망우로 233 중랑구 중화동 211-3,37.59529877,127.0800324,2017-05-02,10,,LCD
1405, 망우역 1번출구,중랑구,서울특별시 중랑구 망우로55길 11-10 망우역 1번출구,37.59909821,127.0929489,2017-04-26,10,,LCD
1406, 망우청소년수련관,중랑구,서울특별시 중랑구 송림길 156 망우청소년수련관,37.60625076,127.1082687,2017-04-26,10,,LCD
1407, 먹골역 1번출구 뒤,중랑구,서울특별시 중랑구 공릉로 12 중랑구 묵동 189-4,37.61151123,127.0778885,2017-06-22,10,,LCD
1408, 먹골역 6번출구 앞,중랑구,서울특별시 중랑구 동일로 지하 901 먹골역 6번출구 앞,37.61072159,127.0774765,2017-04-26,10,,LCD
1410, 면목 대원칸타빌아파트,중랑구,서울특별시 중랑구 용마산로 285 581 번지,37.57778168,127.0901871,2017-04-26,10,,LCD
1411, 상봉시장앞 교차로 한성빌딩 앞,중랑구,서울특별시 중랑구 면목로 456 중랑구 면목동 282-4,37.59254074,127.0867386,2017-06-27,10,,LCD
1413, 봉화산역 5번출구 뒤,중랑구,서울특별시 중랑구 신내로 지하 232 봉화산역 5번출구 뒤,37.61756134,127.0903091,2017-04-26,10,,LCD
1414, 사가정역 2번출구,중랑구,서울특별시 중랑구 면목로 325,37.58098984,127.0882416,2017-06-22,,10,QR
1416, 상봉역 3번출구,중랑구,서울특별시 중랑구 면목로 480 중랑구 상봉동 160-22,37.59521866,127.0859985,2017-06-22,8,,LCD
1418, 새솔초등학교,중랑구,서울특별시 중랑구 신내역로1길 164 새솔초등학교,37.61743927,127.1090164,2017-04-26,10,,LCD
1420, 신내어울공원 앞,중랑구,서울특별시 중랑구 신내로16길 33 신내동 의료안심주택,37.61394501,127.097702,2017-04-26,15,,LCD
1421, 신내역 4번출구,중랑구,서울특별시 중랑구 신내로 지하 232 신내역 4번출구,37.61246109,127.1033783,2017-04-26,13,,LCD
1422, 신내우디안아파트 1단지,중랑구,서울특별시 중랑구 신내역로 213 신내우디안아파트 1단지,37.62009811,127.1064606,2017-04-26,10,,LCD
1424, 양원역 2번출구,중랑구,서울특별시 중랑구 송림길 147 양원역 2번출구,37.6063118,127.1077423,2017-04-26,10,,LCD
1425, 용마문화복지센터,중랑구,서울특별시 중랑구 용마산로86길 9-27 용마문화복지센터,37.58745956,127.0959702,2017-04-26,10,,LCD
1426, 면목도시개발아파트 1동 앞,중랑구,서울특별시 중랑구 용마산로 지하 227 면목도시개발아파트 1동 앞,37.57358932,127.0868225,2017-04-26,10,,LCD
1427, 용마산역 1번출구,중랑구,서울특별시 중랑구 용마산로 지하 227 중랑구 면목동 1381,37.57429886,127.0869141,2017-06-22,10,,LCD
1428, 원묵고등학교,중랑구,서울특별시 중랑구 숙선옹주로 66 중랑구 묵동 20-3,37.61602402,127.085968,2017-06-22,10,,LCD
1429, 장안중학교,중랑구,서울특별시 중랑구 동일로 778 동일로 778,37.59995651,127.0800018,2017-06-22,15,,LCD
1430, 중랑구청,중랑구,서울특별시 중랑구 봉화산로 179 중랑구 신내동 662-1,37.60615158,127.092598,2017-06-22,20,,LCD
1431, 중랑구청 사거리,중랑구,서울특별시 중랑구 봉화산로 194 중랑구 신내동 561,37.60649872,127.0954514,2017-06-22,10,,LCD
1433, 중화역 2번출구,중랑구,서울특별시 중랑구 동일로 지하 797 중랑구 중화동 50-3,37.60207748,127.0795822,2017-06-22,10,,LCD
1435, 능산삼거리,중랑구,서울특별시 중랑구 용마산로 644 능산삼거리,37.60868073,127.1007919,2017-04-26,10,,LCD
1436, 동원베네스트 건물 앞,중랑구,서울특별시 중랑구 용마산로 640,37.60810089,127.101181,2017-04-26,15,,LCD
1437, 늘푸른공원 앞,중랑구,서울특별시 중랑구 동일로 594 늘푸른공원 앞,37.5834198,127.0799255,2017-04-26,15,,LCD
1438, 홈플러스 신내점 앞,중랑구,서울특별시 중랑구 신내로 지하 232 홈플러스 신내점 앞,37.61616898,127.093483,2017-04-26,15,,LCD
1440, 면목2동 사거리,중랑구,서울특별시 중랑구 동일로 628 하나은행,37.58637238,127.0800705,2017-08-01,10,,LCD
1441, 신내능말공원,중랑구,서울특별시 중랑구 신내역로 165 신내 데시앙포레,37.61670685,127.11026,2017-04-26,10,,LCD
1442, 중랑구 중소기업 창업센터,중랑구,서울특별시 중화동 50-8 (구)신한은행 중랑교지점,37.59859085,127.0798187,2017-11-01,8,,LCD
1444, 면목4치안센터,중랑구,서울특별시 면목동 646-4 면목4치안센터,37.57402802,127.0805435,2017-11-01,10,,LCD
1445, 용마지구대,중랑구,서울특별시 면목동 197-5 용마지구대,37.5799408,127.0793991,2017-11-01,10,,LCD
1446, 중랑전화국 교차로,중랑구,서울특별시 중랑구 면목동 282-8 중랑전화국 교차로,37.59130096,127.0803299,2017-11-01,10,,LCD
1447, 면목역 3번출구,중랑구,서울특별시 면목동 120-2 면목역 3번출구,37.58890152,127.0872803,2017-11-01,15,,LCD
1448, 코스트코 상봉점,중랑구,서울특별시 상봉동 160-3 코스트코 상봉점,37.59732056,127.089798,2017-11-01,15,,LCD
1449, 상봉역 1번출구,중랑구,서울특별시 중랑구 망우로 297 상봉역 1번출구,37.59655762,127.0858383,2017-11-28,15,,LCD
1450, 화랑대역 7번출구,중랑구,서울특별시 중랑구 묵동 6-3,37.61963654,127.0850449,2017-11-28,10,,LCD
1451, 중랑세무서,중랑구,서울특별시 중랑구 망우로 176 중랑세무서,37.59275818,127.07267,2017-11-28,10,,LCD
1452, 겸재교 진입부,중랑구,서울특별시 중랑구 겸재로 68 겸재교진입부,37.58565521,127.0750504,2017-11-29,20,,LCD
1453, 중랑캠핑숲,중랑구,서울특별시 중랑구 송림길 172 중랑캠핑숲,37.60460281,127.1092529,2017-12-22,9,,LCD
1454, 한국전력공사(동대문 중랑지사),중랑구,서울특별시 중랑구 동일로 862 한국전력공사(동대문 중랑지사),37.6073494,127.0785904,2017-12-22,10,,LCD
1455, 상봉역 2번 출구,중랑구,서울특별시 중랑구 망우로 297 상봉역 2번 출구,37.59632874,127.0858994,2018-02-13,10,,LCD
1456, 상아빌딩(우림시장 교차로),중랑구,서울특별시 중랑구 용마산로 494 상아빌딩(우림시장 교차로),37.59511185,127.1003265,2018-02-26,10,,LCD
1457, 동원사거리,중랑구,서울특별시 중랑구 겸재로 229 동원사거리,37.58975983,127.0932388,2018-02-26,10,,LCD
1458, 상봉터미널2,중랑구,서울특별시 중랑구 용마산로115길 127 용마산로115길 127,37.59733963,127.0930862,2018-11-02,,9,QR
1459, 용마한신아파트사거리,중랑구,서울특별시 중랑구 용마산로 313 용마한신아파트사거리,37.58034897,127.0926514,2018-10-29,10,,LCD
1461,동양엔파트 앞,중랑구,서울특별시 중랑구 망우로 203 중화동주상복합,37.593853,127.0750732,2020-04-21,,12,QR
1462,동부시장 북문 앞,중랑구,서울특별시 중랑구 망우로 214 우도빌딩,37.59386826,127.0765228,2020-05-05,,9,QR
1463,중랑구민회관,중랑구,서울특별시 중랑구 면목로 238 중랑구민회관,37.57407761,127.0850067,2020-04-30,,10,QR
1464,중화역 4번출구,중랑구,서울특별시 중랑구 동일로 815,37.60305405,127.0790024,2020-04-21,,15,QR
1465,중랑공영차고지 옆,중랑구,서울특별시 중랑구 신내동 63-8,37.61314774,127.1051483,2020-04-14,,10,QR
1466,두산대림아파트 삼거리,중랑구,서울특별시 중랑구 신내로23길 9 묵동근생빌딩,37.61882401,127.0875702,2020-04-14,,10,QR
1467,sk신내 주유소앞(용마산로),중랑구,서울특별시 중랑구 신내동 353-2,37.61362076,127.1011505,2020-04-14,,10,QR
1468,먹골역 7번 출구,중랑구,서울특별시 중랑구 동일로 901 먹골역,37.6114769,127.0773926,2020-04-21,,6,QR
1469,먹골역 4번출구,중랑구,서울특별시 중랑구 동일로 890,37.60982132,127.0781326,2020-04-21,,20,QR
1470,중화동 우리은행 앞,중랑구,서울특별시 중랑구 동일로 837 우리은행,37.60520172,127.0785828,2020-04-20,,20,QR
1471,동양쇼핑 정류소 앞,중랑구,서울특별시 중랑구 묵동 190-2,37.61535263,127.0784912,2020-06-18,,10,QR
1472,영성빌딩(PAT),중랑구,서울특별시 중랑구 동일로 824 신성빌딩,37.60408401,127.0792313,2020-04-20,,8,QR
1473,중랑역 1번 출구(중화문화복지센터),중랑구,서울특별시 중랑구 중화동 321-129,37.59489059,127.0749512,2020-04-21,,10,QR
1474,서울중랑우체국,중랑구,서울특별시 중랑구 망우로 271 서울중랑우체국,37.59581375,127.08284,2020-05-05,,10,QR
1477,면목삼익아파트 앞,중랑구,서울특별시 중랑구 동일로 501 면목삼익아파트,37.57598495,127.0796051,2020-04-14,,10,QR
1478,홈플러스 상봉점 앞,중랑구,서울특별시 중랑구 상봉동 500-1,37.59832764,127.0922699,2020-04-21,,15,QR
1479,면목 홈플러스 2,중랑구,서울특별시 중랑구 사가정로 326 중랑구 실향민협의회,37.58105469,127.0820923,2020-04-14,,10,QR
1480, 용마지구대 옆,중랑구,서울특별시 중랑구 동일로 566 중랑경찰서용마지구대,37.58111191,127.080101,2020-04-16,,15,QR
4802, 새우개마을,중랑구,서울특별시 중랑구 신내동278-50,37.61571121,127.1010437,2021-02-15,,8,QR
4803, 상봉2동 주민센터 앞,중랑구,서울특별시 중랑구 상봉동 126-42,37.59268951,127.0802841,2021-02-15,,7,QR
4804, 동서울농협 앞,중랑구,서울특별시 중랑구 망우로 290,37.59596252,127.0847778,2021-02-16,,9,QR
4807, 라코지스테이 앞,중랑구,서울특별시 중랑구 망우로232,37.59432602,127.0784607,2021-02-16,,8,QR
4808, 신내2동 주민센터 앞,중랑구,서울특별시 중랑구 봉화산로 190,37.60641098,127.0940476,2021-02-16,,8,QR
4809," 동성1,2차 아파트 앞",중랑구,서울특별시 중랑구 신내로 126 동성아파트,37.61022568,127.096283,2021-02-15,,8,QR
4811, 한양수자인아파트 앞,중랑구,서울특별시 중랑구 면목동 1085-1,37.58032227,127.0941544,2021-02-17,,10,QR
4812, 묵동 이마트 앞,중랑구,서울특별시 중랑구 묵동 170-45,37.6132164,127.0773468,2021-02-17,,10,QR
4813, 망우지구대,중랑구,서울특별시 중랑구 망우로 400,37.59877777,127.0963898,2021-02-16,,10,QR
4815, 중랑데시앙플렉스 앞,중랑구,서울 중랑구 신내역로3길 40-36,37.61755371,127.1039963,2021-04-26,,8,QR
4819, 면목동 새싹어린이공원 앞,중랑구,서울특별시 중랑구 동일로92길 57,37.58333206,127.0835495,2021-06-01,,10,QR
4820, 망우역 2번 출구,중랑구,서울특별시 중랑구 중랑구 망우로55길 11-10(상봉동),37.60025406,127.091713,2021-07-02,,8,QR
4823, 방정환교육지원센터 옆,중랑구,서울특별시 중랑구 중랑구 망우로 325(상봉동),37.59780884,127.0884476,2021-08-17,,8,QR
4825, 신내동 벽산아파트 후문 앞,중랑구,서울특별시 중랑구 용마산로125길 50 벽산아파트,37.6030426,127.100502,2021-08-28,,8,QR
4828, 신내동 한살림 중랑지구 앞,중랑구,서울특별시 중랑구 신내동 574-1,37.60428619,127.0973663,2021-10-08,,5,QR
4829, 신내동 한살림 중랑지구 북축,중랑구,서울특별시 중랑구 신내동 574-1,37.60446167,127.0974121,2021-10-08,,5,QR
4824, 상봉신협 앞,중랑구,서울특별시 중랑구 봉우재로41길 6 청운명가프라임,37.59354401,127.0897903,2021-08-26,,7,QR
4826, 홈플러스 면목점,중랑구,서울특별시 중랑구 동일로 540,37.57984543,127.0824204,2021-08-28,,8,QR
4827, 신내SK V1센터 앞,중랑구,서울특별시 중랑구 중랑구 신내역로 111,37.6127243,127.11306,2021-09-23,,20,QR
4834, 용마복지센터 앞,중랑구,서울특별시 중랑구 중랑구 용마산로 393,37.58686447,127.0953217,2021-10-28,,8,QR
4835, 망우동 본죽 앞,중랑구,서울특별시 중랑구 망우로 467,37.60064316,127.1040497,2021-11-11,,7,QR
4836, 양원역 1번 출구,중랑구,서울특별시 중랑구 망우동 253-18,37.60655212,127.1070862,2021-12-13,,15,QR
4837, 양원지구 힐데스하임 앞,중랑구,서울특별시 중랑구 봉화산로 301,37.60924149,127.1062088,2021-12-13,,8,QR
4838,동원사거리 행복오피스텔 앞,중랑구,서울특별시 중랑구 겸재로 240 행복오피스텔,37.58973694,127.0941925,2022-01-03,,7,QR
4840, 서울시 북부병원 앞,중랑구,서울특별시 중랑구 양원역로 38 서울시북부병원 및 시립중랑노인전문요양원,37.60405731,127.107254,2022-01-12,,7,QR
4830, 신내 우디안 111동 앞,중랑구,서울특별시 중랑구 신내역로1길 85 신내우디안1단지,37.61727142,127.1085434,2022-01-12,,7,QR
4841,중화수경공원,중랑구,중랑구 중화동 381-3,37.60318375,127.0741348,2022-11-01,,15,QR
1302, 한성대입구역6번출구 뒤,성북구,서울특별시 성북구 동소문로 1 한성대입구역6번출구 뒤,37.58876419,127.0063095,2017-06-20,5,,LCD
1303, 돈암초교 입구,성북구,서울특별시 성북구 동소문로13길 38 돈암초교,37.59169388,127.012497,2017-06-30,10,,LCD
1304, 만해공원,성북구,서울특별시 성북구 성북로 132-1 만해공원,37.59440231,126.9923096,2017-06-20,10,,LCD
1305, 성북구청,성북구,서울특별시 성북구 보문로 168 성북구청,37.58932877,127.0164337,2017-08-03,15,,LCD
1306, 한성대입구역2번출구,성북구,서울특별시 성북구 동소문로 2 성북구 동소문동2가 2-3,37.58844757,127.0067062,2017-06-22,,10,QR
1308, 안암로터리 버스정류장 앞,성북구,서울특별시 성북구 안암로 69 안암로터리 버스정류장,37.58259201,127.0289764,2017-06-20,18,,LCD
1314, 정릉꿈에그린1단지 201동 앞,성북구,서울특별시 성북구 아리랑로19길 20 성북구 정릉동 966-62,37.60243988,127.0116882,2017-04-26,8,,LCD
1315, 고려사대부속중고 정문,성북구,서울특별시 성북구 보국문로29길 23 성북구 정릉동 966-1,37.60776138,127.0032806,2017-04-26,10,,LCD
1316, 고려사대부속중고 건너편,성북구,서울특별시 성북구 보국문로29길 23 성북구 정릉동 966-1,37.60726166,127.0028381,2017-04-26,10,,LCD
1318, 길음역 3번출구 뒤,성북구,서울특별시 성북구 동소문로 248 동소문로248,37.60308456,127.0247879,2017-04-26,14,,LCD
1319, 종암사거리 분수대,성북구,서울특별시 성북구 종암로 147 성북구 하월곡동 104-134,37.6030426,127.0332718,2017-04-26,,10,QR
1321, 국민은행 종암동지점 앞,성북구,서울특별시 성북구 종암로3길 37-2 성북구 종암동 12-33,37.59328842,127.0366669,2017-05-11,14,,LCD
1322, 래미안라센트아파트 103동 앞,성북구,서울특별시 성북구 종암로3길 37-2 성북구 종암동 12-33,37.59806824,127.0392761,2017-04-26,10,,LCD
1323, 월곡역 입구 육교 밑,성북구,서울특별시 성북구 월곡로 지하 107 성북구 종암동 113-10,37.60043335,127.0402069,2017-04-26,10,,LCD
1325, 상월곡역 4번출구,성북구,서울특별시 성북구 화랑로 148 성북구 상월곡동 산7-1,37.60580826,127.0477371,2017-04-26,10,,LCD
1326, 상월곡역 1번출구,성북구,서울특별시 성북구 화랑로 지하 157 성북구 상월곡동 35-9,37.60606766,127.0473175,2017-04-26,10,,LCD
1327, 상월곡역 3번출구,성북구,서울특별시 성북구 화랑로 지하 157 성북구 상월곡동 26-1,37.60734177,127.0506821,2017-04-26,10,,LCD
1328, 월곡역 3번출구,성북구,서울특별시 성북구 월곡로 지하 107 성북구 하월곡동 37-4,37.6026268,127.0416336,2017-06-27,10,,LCD
1332, 석계역 5번출구 건너편,성북구,서울특별시 노원구 화랑로 지하 347-1 성북구 석관동 134-4,37.61355591,127.0660934,2017-04-26,10,,LCD
1333, 석관초등학교 앞,성북구,서울특별시 성북구 돌곶이로22길 21 성북구 석관동 202-3,37.61052322,127.0597992,2017-04-26,20,,LCD
1334, 석관동주민센터 앞,성북구,서울특별시 성북구 화랑로 296 성북구 석관동 384-2,37.61299896,127.0613098,2017-04-26,10,,LCD
1336, 성북3교 위,성북구,서울특별시 성북구 보문로 192 성북3교 위,37.59125137,127.0140076,2017-11-13,30,,LCD
1337, 돈암성당 옆,성북구,서울특별시 성북구 인촌로7길 120 돈암성당 옆,37.59038162,127.0171356,2017-11-13,13,,LCD
1338, 용문2교 옆,성북구,서울특별시 성북구 인촌로7길 24 용문2교 옆,37.5868988,127.020752,2017-11-13,15,,LCD
1339, 삼성전자서비스 성북센터,성북구,서울특별시 성북구 월계로 28 삼성전자서비스 성북센터,37.610569,127.0335083,2017-11-13,9,,LCD
1340, 광운초등학교 앞,성북구,서울특별시 성북구 장위동 134-27,37.61784363,127.0550003,2017-11-13,11,,LCD
1342, 성북쉼터 앞,성북구,서울특별시 성북구 성북로21길 32 성북쉼터 앞,37.59261703,126.9979324,2017-11-13,10,,LCD
1343, 한성대7번출구 앞,성북구,서울특별시 성북구 동소문로 11 한성대7번출구 앞,37.58924866,127.0073776,2017-11-13,8,,LCD
1344, 아리랑시네센터 앞,성북구,서울특별시 성북구 아리랑로 82 아리랑시네센터 앞,37.60028839,127.0137024,2017-11-13,10,,LCD
1346, 길음8골어린이공원 옆,성북구,서울특별시 성북구 길음로13길 22 길음8골어린이공원 옆,37.60897827,127.0202484,2017-11-13,15,,LCD
1347, 길음래미안아파트817동 상가 앞,성북구,서울특별시 성북구 길음로 33 길음래미안아파트817동 상가 앞,37.60710526,127.0214996,2017-11-13,10,,LCD
1348, 성북제일새마을금고 본점 앞,성북구,서울특별시 성북구 길음로 20 성북제일새마을금고 본점 앞,37.60475159,127.0227585,2017-11-13,12,,LCD
1349, 월계2교 버스정류장 앞,성북구,서울특별시 성북구 한천로101길 18 월계2교 버스정유장 앞,37.62382889,127.0502014,2017-11-13,10,,LCD
1351, 안암2교 옆,성북구,서울특별시 성북구 안암로 17 SK제삼주유소 앞,37.5794487,127.0241928,2017-11-13,8,,LCD
1352, e 편한세상 보문아파트 내,성북구,서울특별시 성북구 낙산길 255 e 편한세상 보문아파트 내,37.58388138,127.0170975,2017-11-13,8,,LCD
1353, 금호어울림센터힐 내,성북구,서울특별시 성북구 동소문로34길 73 금호어울림센터힐 내,37.60083008,127.0235519,2017-11-13,8,,LCD
1354, 고려대학교 2번출구,성북구,서울특별시 성북구 종암로 지하 1 고려대학교 2번출구,37.5907135,127.0361939,2017-11-28,22,,LCD
1355, 보문2교,성북구,서울특별시 성북구 보문로30길 29 보문2교,37.58869934,127.0189133,2017-12-22,25,,LCD
1357, 북한산보국문역,성북구,서울특별시 성북구 보국문로 91 북한산보국문역,37.61207199,127.0081329,2018-02-26,10,,LCD
1358, 정릉도서관 앞,성북구,서울특별시 성북구 보국문로 7-10 정릉도서관 앞,37.60478973,127.010582,2018-02-26,7,,LCD
1359, 장위뉴타운 꿈에 숲 코오롱 하늘채 앞,성북구,서울특별시 성북구 월계로 172 장위뉴타운 꿈에 숲 코오롱 하늘채 앞,37.61980057,127.0450974,2018-02-26,8,,LCD
1360, 정릉역,성북구,서울특별시 성북구 정릉로 272 정릉역,37.60309601,127.013504,2018-02-26,10,,LCD
1361, 홍익중고 입구,성북구,서울특별시 성북구 성북동 142-1,37.59296799,127.0022354,2018-02-26,20,,LCD
1362, 보문역6번출구 앞,성북구,서울특별시 성북구 보문로 112-2,37.58519745,127.0196686,2018-11-02,,12,QR
1363, 보문4교 인근,성북구,서울특별시 성북구 보문로22길 28 보문4교 인근,37.58375168,127.0219498,2018-11-04,25,,LCD
1364, 성북동 치안센터 앞,성북구,서울특별시 성북구 성북로 25 성북동 치안센터 앞,37.59017181,127.0040894,2018-11-02,10,,LCD
1365, 선잠단지 앞,성북구,서울특별시 성북구 성북로 102-10 선잠단지 앞,37.5933609,126.9990921,2018-10-27,10,,LCD
1366, 일신초등학교 옆,성북구,서울특별시 성북구 월곡로 74 일신초등학교 옆,37.59972,127.0403824,2018-10-26,10,,LCD
1367, 길음문화복합미디어센터,성북구,서울특별시 성북구 길음로7길 6 길음뉴타운9단지래미안 상가,37.60404587,127.0226593,2018-11-02,10,,LCD
1368, 성신여대입구 교차로,성북구,서울특별시 성북구 보문로34길 87 성신여대입구 교차로,37.59148026,127.0201035,2018-11-02,10,,LCD
1370, 복자사랑 피정의 집,성북구,서울특별시 성북구 성북로 132-4 복자사랑 피정의 집,37.59453964,126.9952087,2018-10-27,10,,LCD
1372, KEB은행 고대점,성북구,서울특별시 성북구 인촌로 113 KEB은행 고대점,37.58644485,127.031601,2018-10-24,,20,QR
1373, 성북구보건소 건너편,성북구,서울특별시 성북구 화랑로 63 성북구보건소 건너편,37.60229111,127.0389786,2018-10-26,,8,QR
1375, 생명의 전화 종합복지관 앞 교차로,성북구,서울특별시 성북구 오패산로 21 생명의 전화 종합복지관 앞 교차로,37.60390854,127.0373764,2018-12-27,20,,LCD
1376, 한국과학기술연구원 중문,성북구,서울특별시 성북구 화랑로14길 5 한국과학기술연구원 정문,37.59732056,127.043808,2019-05-21,,7,QR
1377, 한국과학기술연구원 북문,성북구,서울특별시 성북구 화랑로14길 5 한국과학기술연구원 후문,37.60395813,127.0453415,2019-05-21,10,,LCD
1379,길음뉴타운푸르지오아파트 3단지,성북구,서울특별시 성북구 길음로13길 39 길음뉴타운,37.60935974,127.0181732,2020-03-26,,10,QR
1380,월곡역 5번출구 앞,성북구,서울특별시 성북구 하월곡동 96-248,37.60108566,127.0412369,2020-03-30,,10,QR
1381,석계역 4번출구 뒤,성북구,서울특별시 성북구 석관동 375-97,37.61478424,127.0670013,2020-03-25,,18,QR
1382,래미안월곡아파트 입구,성북구,서울특별시 성북구 하월곡동 225-5,37.60866547,127.0362701,2020-03-26,,10,QR
1384,성신여대입구역 5번출구,성북구,서울특별시 성북구 동소문동6가 140-5,37.59282684,127.0162888,2020-03-28,,13,QR
1385,성신여대입구역 3번출구 앞,성북구,서울특별시 성북구 동소문로 98 제일은행,37.59236526,127.0162888,2020-06-17,,10,QR
1386,동선고가차도 초입,성북구,서울특별시 성북구 동소문로 130,37.59415817,127.0189667,2020-03-28,,10,QR
1388, 돈암초교입구 버스정류장(한성대입구역 방면),성북구,서울특별시 성북구 동소문동3가 66-1,37.59088135,127.0117035,2020-03-28,,10,QR
1390,석관래미안아트리치,성북구,서울특별시 성북구 석관동 323-2,37.60646057,127.0616226,2020-05-05,,10,QR
1391,성북청소년센터,성북구,서울특별시 성북구 장위동 322-8,37.61701202,127.0561676,2020-03-24,,10,QR
1392,돈암삼성풍림아파트,성북구,서울특별시 성북구 돈암동 632-6,37.5970993,127.0226288,2020-03-27,,10,QR
1393,돈암육교 하단,성북구,서울특별시 성북구 돈암동 51-10,37.59802628,127.0214081,2020-05-05,,10,QR
1394,길음뉴타운 래미안9단지,성북구,서울특별시 성북구 정릉로 243,37.60241699,127.0197144,2020-03-27,,10,QR
1395,래미안장위포레카운티(102동),성북구,서울특별시 성북구 장위동 143-12,37.61817932,127.0518341,2020-03-25,,20,QR
1396,래미안장위퍼스트하이(513동),성북구,서울특별시 성북구 장위동 201-6,37.61844254,127.0514526,2020-03-25,,30,QR
4406, 장곡초등학교 앞,성북구,서울특별시 성북구 장위동 237-132,37.61745453,127.0484467,2021-04-12,,10,QR
4408, 돌곶이역 앞,성북구,서울특별시 성북구 화랑로 지하 243,37.61131287,127.0575943,2021-04-27,,10,QR
4411, 동산어린이공원 앞,성북구,서울특별시 성북구 성북구 하월곡동 96-78,37.60623932,127.0346603,2021-07-15,,5,QR
4414, 안암역 3번 출구,성북구,서울특별시 성북구 고려대로 104-1,37.58625031,127.0309525,2021-10-01,,8,QR
4415, 미아초교버스승강장,성북구,서울특별시 성북구 성북구 길음동 1261-535,37.61207962,127.0219803,2021-10-27,,7,QR
4417, 성북청소년문화의집,성북구,서울특별시 성북구 성북구 솔샘로 107,37.61566925,127.0087662,2022-02-11,,10,QR
4418, 종암동 동덕여대 제2생활관 앞,성북구,서울특별시 성북구 성북구 종암로 123,37.60108948,127.0333176,2022-02-11,,8,QR
4419, 성북구 한예종 캠퍼스 본관,성북구,서울특별시 성북구 화랑로32길 146-37 한국예술종합학교,37.60665131,127.0561829,2022-01-17,,6,QR
4420, 성북구 한예종 캠퍼스 별관,성북구,서울특별시 성북구 화랑로32길 146-20 문화재청의릉지구관리소,37.60289764,127.0584793,2022-01-17,,6,QR
4421, 롯데캐슬클라시아 입구 앞,성북구,서울특별시 성북구 길음동 1289-3,37.60668945,127.0258942,2022-10-18,,10,QR
1501," 미아역 3번,4번 출구 사이",강북구,"서울특별시 강북구 도봉로 196 미아역 3,4번 출구 사이",37.62607956,127.0264816,2017-08-03,9,,LCD
1503, 강북구청사거리(수유역 8번출구),강북구,서울특별시 강북구 도봉로 355,37.63926315,127.0267258,2017-05-11,14,,LCD
1504, 삼양시장오거리,강북구,서울특별시 강북구 삼양로 234 다이소 삼양시장점,37.62415695,127.0186234,2017-05-11,10,,LCD
1506, 강북문화예술회관,강북구,서울특별시 강북구 삼각산로 85 강북문화예술회관,37.64032745,127.0133591,2017-05-11,15,,LCD
1509, 서울북부수도사업소,강북구,서울특별시 강북구 한천로 935 번동 386-17,37.63437653,127.0357513,2017-06-22,10,,LCD
1510, 번동주공5단지 관리사무소 앞,강북구,서울특별시 강북구 오현로25마길 27 번동 230,37.63371658,127.0355148,2017-06-22,10,,LCD
1511, 번동 금호어울림아파트102동앞,강북구,서울특별시 강북구 오현로31길 85-7 번동 656-2,37.63112259,127.0360336,2017-06-22,9,,LCD
1512, 강북중학교 앞,강북구,서울특별시 강북구 한천로150길 67 수유동 694-2,37.64473724,127.0265656,2017-06-22,20,,LCD
1513, 강북구청 뒷편,강북구,서울특별시 강북구 도봉로89길 13 수유동 192-59,37.63967133,127.0251999,2017-06-22,20,,LCD
1514, 강북구청 사거리 버스정류소 앞,강북구,서울특별시 강북구 한천로 1009 강북구청 사거리 버스정류소,37.63880539,127.0283585,2017-05-11,10,,LCD
1515, 송천동 주민센터,강북구,서울특별시 강북구 솔샘로 284 송천동 주민센터,37.61828613,127.0240479,2017-05-11,10,,LCD
1516, 우이초등학교 후문 옆,강북구,서울특별시 강북구 수유동 409-131,37.63858795,127.0159073,2017-05-11,10,,LCD
1518, 수유2동은행빌딩 앞,강북구,서울특별시 강북구 삼양로 439 SK telecom(수유직영점),37.64308548,127.0161667,2017-05-11,10,,LCD
1519, 장미원시장 건너편,강북구,서울특별시 강북구 삼양로 474 수유동 317-3,37.64545059,127.0156174,2017-05-11,10,,LCD
1520, 수유중앙시장,강북구,서울특별시 강북구 노해로 50 수유동 140,37.63986206,127.022789,2017-05-11,,10,QR
1525, 미아동 복합청사,강북구,서울특별시 강북구 솔매로49길 14 미아동 195-1,37.62714005,127.0266953,2017-05-11,10,,LCD
1526, 강북종합시장 앞,강북구,서울특별시 강북구 수유동 140 수유동 채선당앞,37.64173889,127.0246277,2017-11-01,8,,LCD
1527, 미아역 1번 출구 뒤,강북구,서울특별시 강북구 미아동 194-1 미아역 1번 출구 뒤,37.62733459,127.0260544,2017-11-01,10,,LCD
1528, 삼각산동 주민센터,강북구,서울특별시 미아동 813-8 삼각산동 주민센터,37.61503601,127.0206986,2017-11-01,10,,LCD
1529, 미아동 한국전력공사,강북구,서울특별시 미아동 194-1 미아동 한국전력공사,37.63018036,127.02491,2017-11-01,15,,LCD
1530, 광산사거리,강북구,서울특별시 강북구 노해로 87 광산사거리,37.64355087,127.0223465,2017-11-01,13,,LCD
1531, 미아사거리 1번 출구,강북구,서울특별시 강북구 미아동 66-1 미아사거리 1번 출구,37.61395645,127.0302506,2017-11-01,10,,LCD
1532, 번3동 주민센터 교차로,강북구,서울특별시 강북구 번동 2-2 번3동 주민센터 교차로,37.62635422,127.0474472,2017-11-01,10,,LCD
1533," 번동 주공3, 4단지 교차로",강북구,"서울특별시 강북구 번동 254 번동 주공3, 4단지 교차로",37.62991714,127.0409164,2017-11-01,10,,LCD
1535, 효성인텔리안 앞,강북구,서울특별시 수유동 230-7 효성인텔리안 앞,37.6362915,127.0233765,2017-11-01,10,,LCD
1536, 번동 두산위브 101동 옆,강북구,서울특별시 번동 386-17 번동 두산위브 101동 옆,37.63626099,127.0321732,2017-11-01,20,,LCD
1537, 북한산 우이역,강북구,서울특별시 강북구 삼양로 670 북한산 우이역,37.66366577,127.0124283,2018-02-26,10,,LCD
1538, 솔밭공원역,강북구,서울특별시 강북구 삼양로 595 솔밭공원역,37.65615845,127.0131378,2018-02-26,8,,LCD
1539,4.19민주묘지역,강북구,서울특별시 강북구 삼양로 519 4.19민주묘지역,37.64967346,127.0134506,2018-02-26,10,,LCD
1540, 가오리역,강북구,서울특별시 강북구 삼양로 426 가오리역,37.64167023,127.0168839,2018-02-26,8,,LCD
1541, 삼양역,강북구,서울특별시 강북구 삼양로 263 삼양역,37.62652969,127.0180588,2018-02-26,10,,LCD
1542, 삼양사거리역,강북구,서울특별시 강북구 삼양로 197 삼양사거리역,37.62155151,127.0203705,2018-02-26,10,,LCD
1543, 수유1동 주민센터,강북구,서울특별시 강북구 삼양로 299 수유1동 주민센터,37.63018799,127.0177383,2018-02-26,10,,LCD
1546, 송천동우체국,강북구,서울특별시 강북구 도봉로 71 송천동우체국,37.61545944,127.0297012,2018-10-25,10,,LCD
1547, 꿈의숲 롯데캐슬,강북구,서울특별시 강북구 오현로 56 꿈의숲 롯데캐슬 111동 인근,37.6186409,127.0362396,2018-12-14,10,,LCD
1548, 북서울 꿈의숲 서문,강북구,서울특별시 강북구 월계로 173 북서울 꿈의숲 서문,37.62268829,127.0378113,2018-12-14,15,,LCD
1550,삼각산아이원아파트(105동 옆),강북구,서울특별시 강북구 삼양로19길 113 삼각산아이원아파트,37.61522293,127.0185089,2020-07-21,,10,QR
1551,4.19탑 앞,강북구,서울특별시 강북구 수유동 567-55,37.64686203,127.008812,2020-03-25,,8,QR
1552, 강북구청사거리,강북구,서울특별시 강북구 도봉로 358 코스타타워,37.63920212,127.0272369,2020-03-25,,8,QR
1553,서울북부고용노동지청,강북구,서울특별시 강북구 덕릉로 176 예수그리스도 후기성도교회,37.63520432,127.0339661,2020-03-26,,15,QR
1554,번동사거리,강북구,서울특별시 강북구 번동 430-76,37.63539124,127.0345535,2020-03-25,,10,QR
1557,신창교,강북구,서울특별시 강북구 번동 612-3,37.63238144,127.0393066,2020-03-27,,10,QR
1558,강북문화정보도서관,강북구,서울특별시 강북구 번동 139-5,37.62552643,127.037323,2020-03-26,,10,QR
1560, 도봉세무서 앞,강북구,서울특별시 강북구 도봉로 117 도봉세무서,37.6198082,127.0285263,2020-03-27,,10,QR
1564,4.19민주묘지역 1번출구,강북구,서울특별시 강북구 삼양로 522,37.64959717,127.0138474,2020-03-25,,7,QR
1565,수유사거리,강북구,서울특별시 강북구 수유동 45-33,37.63561249,127.022995,2020-03-25,,15,QR
1568,4.19민주묘지 입구사거리,강북구,서울특별시 강북구 삼양로 504 광리빌딩,37.64793396,127.0145721,2020-03-25,,10,QR
1569,수유역2번출구,강북구,서울특별시 강북구 도봉로 342,37.63796997,127.0259018,2020-03-28,,10,QR
1571,북서울 꿈의 숲 입구,강북구,서울특별시 강북구 오현로20길 46,37.62673187,127.0387726,2020-05-08,,10,QR
1572, 우이동 먹거리마을,강북구,서울특별시 강북구 우이동 207-14,37.66446304,127.0118408,2020-05-08,,10,QR
1573,현대성우아파트 옆,강북구,서울특별시 강북구 삼양로24길 19 현대성우아파트,37.61666489,127.02211,2020-05-05,,10,QR
1574,송중초등학교 옆,강북구,서울특별시 강북구 미아동 98-5,37.61669922,127.0304947,2020-05-05,,8,QR
3703,삼양입구삼거리,강북구,서울특별시 강북구 솔샘로 326 대한예수교장로회 신성교회,37.61708832,127.0280991,2020-11-04,,10,QR
3707, 드래곤타워 앞,강북구,서울특별시 강북구 도봉로 348-1 구두수선대-15,37.63713455,127.0313797,2020-11-04,,10,QR
3711, 월계2교 교차로,강북구,서울특별시 강북구 번동 259,37.6242218,127.0492172,2020-11-04,,10,QR
3714, 송천센트레빌,강북구,서울특별시 강북구 미아동 461-4,37.61220932,127.0249786,2020-11-04,,10,QR
3718,번동3단지 버스정류장,강북구,서울특별시 강북구 서울 강북구 번동 255도,37.628685,127.0439072,2021-01-27,,8,QR
3720, 우이천 창번교,강북구,서울특별시 강북구 번동 655-8,37.63536072,127.037674,2022-10-11,,5,QR
3724,삼양동주민센터 앞,강북구,강북구 솔매로69,37.62491226,127.0197907,2022-12-08,,20,QR
3725,강북 청소년 문화정보도서관 앞,강북구,강북구 삼양로54길 68,37.62302017,127.0218658,2022-12-22,,5,QR
1702, 녹천역 1번출구 앞,도봉구,서울특별시 도봉구 창동 426-6,37.64582062,127.0504227,2017-05-08,10,,LCD
1703, 도봉산광역환승센터앞,도봉구,서울특별시 도봉구 도봉로 955 도봉동 637-1,37.68972015,127.0451965,2017-05-11,10,,LCD
1705, 도봉구청 정문앞,도봉구,서울특별시 도봉구 마들로 656 방학동 720,37.66922379,127.0465164,2017-05-08,8,,LCD
1706, 방학동우체국 건너편,도봉구,서울특별시 도봉구 도봉로 683 방학동 726-92,37.66566467,127.0426712,2017-06-27,10,,LCD
1707, 도봉구민회관,도봉구,서울특별시 도봉구 도봉로 552 창동 723-11,37.65446091,127.0385132,2017-05-08,20,,LCD
1708, 도봉보건소사거리,도봉구,서울특별시 도봉구 해등로 150 창동 723-10,37.65682983,127.0398483,2017-05-11,7,,LCD
1709, 쌍문역4번출구 주변,도봉구,서울특별시 도봉구 도봉로 지하 486-1 쌍문동 83-5,37.65012741,127.035347,2017-05-08,17,,LCD
1713, 쌍문동 이안아파트 앞,도봉구,서울특별시 도봉구 쌍문동 315-488,37.65165329,127.0284882,2019-07-01,10,,LCD
1714, 도봉문화정보도서관 삼거리,도봉구,서울특별시 도봉구 덕릉로 315 도봉문화정보도서관 삼거리,37.64463043,127.0446091,2017-11-01,10,,LCD
1715, 서울특별시교육청도봉도서관,도봉구,서울특별시 도봉구 삼양로556 서울특별시교육청도봉도서관,37.65317917,127.0127869,2017-11-01,20,,LCD
1716, 창동역 1번출구 건너편,도봉구,서울특별시 도봉구 마들로11길 20 하나로마트 창동점,37.65420151,127.0507278,2017-11-01,10,,LCD
1717, 시립창동운동장 입구,도봉구,서울특별시 도봉구 창동 1-24 시립창동운동장 입구,37.65570831,127.0501022,2017-11-01,10,,LCD
1719, 신도봉사거리 버스정류장,도봉구,서울특별시 도봉구 도봉로 771 신도봉사거리 버스정류장,37.67328262,127.0439911,2017-11-01,10,,LCD
1720, 도봉구청 옆(중랑천변),도봉구,서울특별시 도봉구 마들로 656 도봉구청 옆(중랑천변),37.66867065,127.0479813,2017-11-01,27,,LCD
1721, 창동역 2번출구,도봉구,서울특별시 창동 74-2 창동역 2번출구,37.65301514,127.0469971,2017-11-01,12,,LCD
1722, 창동청소년수련관,도봉구,서울특별시 도봉구 노해로69길 132 창동청소년수련관,37.65779877,127.0500488,2017-11-28,15,,LCD
1723, 방학동학마을도서관,도봉구,서울특별시 도봉구 시루봉로 128 방학동학마을도서관,37.66207886,127.0277176,2017-11-28,10,,LCD
1725, 창1동주민센터,도봉구,서울특별시 도봉구 해등로 46 창1동주민센터,37.6475029,127.0433121,2017-11-28,10,,LCD
1726, 삼익세라믹아파트교차로,도봉구,서울특별시 도봉구 해등로 189 삼익세라믹아파트,37.65858841,127.0352097,2017-11-28,8,,LCD
1727, 서울도봉초등학교인근,도봉구,서울특별시 도봉구 도봉로173길 96 서울도봉초등학교인근,37.67867661,127.0407639,2017-11-28,15,,LCD
1728, 서울북부지방법원,도봉구,서울특별시 도봉구 마들로 749 서울북부지방법원,37.67771912,127.046814,2018-07-02,10,,LCD
1729, 도봉한신아파트 버스정류장,도봉구,서울특별시 도봉구 도봉로 891 파리바게트앞,37.68400955,127.0457916,2018-10-27,10,,LCD
1730, 도봉산역 교차로 앞,도봉구,서울특별시 도봉구 도봉산길 10 도봉산역 교차로 앞,37.68759155,127.0455017,2018-10-27,8,,LCD
1731, 도봉고등학교 맞은편,도봉구,서울특별시 도봉구 도봉동 282-16,37.6876297,127.0422134,2018-11-02,10,,LCD
1732, 방학역사거리,도봉구,서울특별시 도봉구 도봉로 707 우리은행 앞,37.66759872,127.0429993,2018-10-27,10,,LCD
1733, 방학사거리 (봄마당 앞),도봉구,서울특별시 도봉구 방학로 102 방학사거리 (봄마당 앞),37.66297913,127.0419388,2018-10-27,12,,LCD
1734, 쌍문현대1차아파트 108동 앞,도봉구,서울특별시 도봉구 해등로 218 쌍문현대1차아파트 108동 앞,37.65814972,127.0326691,2018-10-27,10,,LCD
1735," 도봉역 1,2번 출구사이 건너편",도봉구,"서울특별시 도봉구 도봉로170길 2 도봉역 1,2번 출구사이 건너편",37.67911911,127.0449829,2018-10-27,13,,LCD
1736, 버스정류장 앞,도봉구,서울특별시 도봉구 도봉로 528 버스정류장 앞,37.65224075,127.0370636,2018-10-27,12,,LCD
1737, 신창시장,도봉구,서울특별시 도봉구 덕릉로 249 하나은행 (창동점),37.63970184,127.0388336,2018-10-27,13,,LCD
1738, 창동주공17단지 상가앞,도봉구,서울특별시 도봉구 덕릉로 404 창동주공17단지 상가앞,37.6463089,127.052742,2018-12-14,10,,LCD
1741, 제일강산수산입구,도봉구,서울특별시 도봉구 도봉로 444 제일강산수산입구,37.64519882,127.0329819,2018-10-27,20,,LCD
1742, 북한산 코오롱 하늘채,도봉구,서울특별시 도봉구 우이천로 367 북한산 코오롱 하늘채,37.64889145,127.0230179,2018-12-14,10,,LCD
1743,창동19단지아파트 관리사무소앞,도봉구,서울특별시 도봉구 노해로70길 37 주공19단지아파트,37.65039062,127.0521927,2020-03-17,,10,QR
1744,도봉소방서 옆,도봉구,서울특별시 도봉구 도봉로 678 홈플러스데스코㈜방학점,37.66480255,127.0430298,2020-03-21,,15,QR
1746, 방학남부역 버스정류장,도봉구,서울특별시 도봉구 도봉로 696,37.66659546,127.0433655,2020-03-21,,10,QR
1748, 방학역 1번출구,도봉구,서울특별시 도봉구 도봉로 724,37.66898346,127.0437622,2020-03-21,,7,QR
1749, ESA아파트 상가 앞,도봉구,서울특별시 도봉구 도봉로150길 43 ESA 아파트,37.66627121,127.04599,2020-03-21,,10,QR
1750, 창포원 남쪽 입구,도봉구,서울특별시 도봉구 마들로 916 방문자센터,37.68826675,127.0488968,2020-03-23,,12,QR
1751, 창원초등학교 교차로,도봉구,서울특별시 도봉구 해등로12길 44 주공2단지아파트,37.6521225,127.0417023,2020-03-23,,15,QR
1752, 창동 주공 4단지 입구 옆,도봉구,서울특별시 도봉구 덕릉로 357 주공4단지아파트,37.64548111,127.0485764,2020-03-17,,10,QR
1754, 창동시장입구 사거리,도봉구,서울특별시 도봉구 도봉로 461 우림빌딩,37.64689636,127.033432,2020-03-17,,11,QR
1756,서울북부광역등기국,도봉구,서울특별시 도봉구 노해로 327,37.6514473,127.0447083,2020-03-17,,10,QR
1757,솔밭공원역 1번출구 앞,도봉구,서울특별시 도봉구 삼양로 590,37.65568542,127.013382,2020-03-25,,10,QR
1758,솔밭공원역 1번출구 주변,도봉구,서울특별시 도봉구 삼양로 610 산수디앤씨,37.65727997,127.0137558,2020-03-25,,10,QR
1759,서울북부지방법원 앞,도봉구,서울특별시 도봉구 마들로 749 서울북부지방법원,37.67721939,127.0486374,2020-03-18,,10,QR
1761,방학중학교 앞,도봉구,서울특별시 도봉구 시루봉로 188 방학중학교,37.66562271,127.0310898,2020-03-21,,10,QR
1762,북한산 한신휴플러스APT앞,도봉구,서울특별시 도봉구 도봉로136가길 73 북한산한신휴플러스아파트,37.65533829,127.0424194,2020-03-18,,25,QR
1765,쌍문역 1번출구 주변,도봉구,서울특별시 도봉구 도봉로 496,37.64966965,127.035614,2020-03-18,,10,QR
1767,방학초등학교 앞,도봉구,서울특별시 도봉구 방학동 726-127,37.66250992,127.0332794,2020-03-21,,10,QR
1768,신동아타워 버스정류소,도봉구,서울특별시 도봉구 방학로 217-1,37.66205215,127.0287552,2020-03-21,,8,QR
1770,도봉한신아파트 주변,도봉구,서울특별시 도봉구 도봉동 646-1,37.68473816,127.0500412,2020-07-30,,15,QR
1771,성원APT버스정류소,도봉구,서울특별시 도봉구 해등로 242-18 현대아파트,37.65796661,127.0300903,2020-03-18,,15,QR
1772,시립도봉노인복지관 버스정류소,도봉구,서울특별시 도봉구 쌍문동 45-13,37.65805054,127.035759,2020-03-23,,10,QR
1774,정의여중고 버스정류소,도봉구,서울특별시 도봉구 쌍문동 83-2,37.65134811,127.034729,2020-03-17,,8,QR
1775,신원리베르텔 앞,도봉구,서울특별시 도봉구 창동 339,37.65128708,127.0455475,2020-03-17,,15,QR
4054, 창동한신아파트 버스정류소,도봉구,서울특별시 도봉구 도봉로110길 25 맞은편,37.64601898,127.0352707,2021-03-02,,10,QR
4058, 다락원체육공원 전망대 입구,도봉구,서울특별시 도봉구 도봉구 도봉동 1-22,37.69101334,127.0491638,2021-03-02,,15,QR
4062, 평화도봉공원 주변,도봉구,서울특별시 도봉구 방학동 710,37.66252136,127.0427094,2021-03-02,,9,QR
4064, 신창아파트 입구 앞,도봉구,서울특별시 도봉구 도봉구 덕릉로62길 14,37.64051056,127.0408249,2021-03-02,,10,QR
4065, 창동역 1번출구 앞,도봉구,서울특별시 도봉구 도봉구 창동 1-12,37.65373611,127.0492935,2021-03-02,,10,QR
4073,방아골종합사회복지관,도봉구,서울특별시 도봉구 방학동 606-5,37.66927338,127.0324326,2021-04-16,,10,QR
4074, 도봉구육아종합지원센터(창동),도봉구,서울특별시 도봉구 도봉구 우이천로4길 24-5,37.63342667,127.0411606,2021-03-03,,10,QR
4076, 도봉통합복지센터 뒤 중랑천 변,도봉구,서울특별시 도봉구 창동,37.65999603,127.0512772,2020-12-23,,10,QR
4077, 도봉제1교,도봉구,서울특별시 도봉구 도봉동 86-1,37.67984772,127.0503845,2021-04-29,,6,QR
4078, 원당공원 앞,도봉구,서울특별시 도봉구 도봉구 쌍문동 250-6,37.65854645,127.0276794,2021-06-16,,8,QR
4080, 창동주공19단지앞,도봉구,서울특별시 도봉구 도봉시 노해로 70길 19 1905동 앞 ( 도봉경찰서 건너편) 버스정류장 쯤에 희망합니다 (분명 설치예정팻말이 붙어있었는데 아직도 시행안됨),37.65250778,127.0522766,2021-10-27,,4,QR
4083,도봉아이나라도서관 앞,도봉구,서울특별시 도봉구 창동 808-3,37.65898895,127.049736,2021-12-15,,8,QR
4084, 도봉동실내스포츠센터,도봉구,서울특별시 도봉구 도봉구 마들로 805 (도봉동실내스포츠센터 앞),37.68125534,127.0504761,2022-02-11,,10,QR
4086, 도봉로 534,도봉구,서울특별시 도봉구 도봉로 534,37.6529541,127.0375443,2022-06-27,,10,QR
4087, 우이교 교차로,도봉구,서울특별시 도봉구 도봉로 420,37.6432457,127.031601,2022-06-27,,10,QR
4088, 김근태도서관,도봉구,서울특별시 도봉구 도봉동 282-275,37.68750763,127.0426331,2022-06-27,,15,QR
4089, 동부센트레빌 앞,도봉구,서울특별시 도봉구 방학로 131-1 구두수선대,37.66299057,127.0386429,2022-08-05,,10,QR
4090,녹천교 앞 사거리,도봉구,창동36(녹천교앞사거리 17단지쪽),37.64564514,127.054596,2022-11-30,,5,QR
4091,방학역2번출구,도봉구,방학동719-2,37.66922379,127.0444183,2022-11-29,,10,QR
4092,도봉경찰서 교차로,도봉구,창동36,37.65265656,127.053093,2022-12-01,,5,QR
4093,창동동아청솔정문 건너편,도봉구,창동 1-24,37.65703964,127.0499115,2022-11-30,,7,QR
1601, 석계역 문화광장 내 자전거 보관소,노원구,서울특별시 노원구 화랑로 331,37.61495972,127.0646973,2021-06-17,,10,QR
1602, 광운대역 앞,노원구,서울특별시 노원구 석계로 98-2 노원구 월계동 412-1,37.62266159,127.0618973,2017-06-27,13,,LCD
1605, 헬스케어,노원구,서울특별시 노원구 월계로 378 노원구 월계동 321-4,37.63162231,127.061615,2017-06-22,10,,LCD
1606, 태릉입구역 3번출구,노원구,서울특별시 노원구 동일로 지하 992-1 노원구 공릉동 616-4,37.61917114,127.0749283,2017-05-08,10,,LCD
1608, 공릉역 1번 출구 앞,노원구,서울특별시 노원구 동일로 지하 1074 노원구 공릉동 385-4,37.62661362,127.0727539,2017-05-26,10,,LCD
1610, 화랑대역 2번출구 앞,노원구,서울특별시 노원구 화랑로 지하 510 노원구 공릉동 280-12,37.62036896,127.0836411,2017-05-08,20,,LCD
1611, 과기대 입구(우),노원구,서울특별시 노원구 공릉로 232 노원구 공릉동 436-4,37.62994003,127.0765533,2017-05-08,20,,LCD
1616, 하계2동 공항버스정류장 옆,노원구,서울특별시 노원구 동일로 지하 1196 노원구 하계동 273-5,37.63510895,127.0683289,2017-05-08,10,,LCD
1617, 하계동 중평어린이공원 앞,노원구,서울특별시 노원구 섬밭로 241 하계동 271-1,37.63714981,127.0632706,2017-05-08,20,,LCD
1619, 중계동 하나프라자빌딩 앞(중1-1),노원구,서울특별시 노원구 한글비석로 235 노원구 중계동 391,37.64902115,127.0764084,2017-05-26,10,,LCD
1620, 중계동 노원구민체육센터 옆(중1-2),노원구,서울특별시 노원구 노원로22길 1 노원구 중계1동 360-18,37.64820862,127.070221,2017-06-22,10,,LCD
1625, 상계역(4번출구),노원구,서울특별시 노원구 상계로 182 노원구 상계동 173-19,37.65999985,127.0729675,2017-06-27,20,,LCD
1627, 수락산역 4번출구,노원구,서울특별시 노원구 동일로 지하 1662 노원구 상계동 1263,37.67694092,127.0550995,2017-06-27,,12,QR
1628, 노일초등학교 앞,노원구,서울특별시 노원구 동일로 1652 노원구 상계동 1118-9,37.67361832,127.0552521,2017-06-22,5,,LCD
1630, 수연빌딩 앞,노원구,서울특별시 노원구 동일로 지하 1662 노원구 상계동 1132-9,37.67625046,127.0555039,2017-06-21,,10,QR
1634, 당고개공원 대여소,노원구,서울특별시 노원구 상계동 1355-2,37.66846085,127.0771484,2017-05-08,15,,LCD
1635, 상계3.4동 주민센터 대여소,노원구,서울특별시 노원구 덕릉로131길 8 노원구 상계동 37-7,37.67271042,127.0831604,2017-05-08,6,,LCD
1636, 상계주공2단지 버스정류장 옆,노원구,서울특별시 노원구 동일로 1351 노원구 상계동 747,37.64921188,127.0617676,2017-05-08,10,,LCD
1637, KT 전화국 버스정류장 옆,노원구,서울특별시 노원구 노해로 489 노원구 상계동 719-1,37.65470123,127.0634003,2017-05-08,9,,LCD
1639, 희성오피앙,노원구,서울특별시 노원구 동일로 1701 노원구 상계동 1263,37.68031311,127.055069,2017-05-08,10,,LCD
1640, 한내근린공원 북측,노원구,서울특별시 노원구 마들로 86 한내근린공원 북측,37.62386322,127.0684891,2017-08-30,,9,QR
1641, 한내근린공원 남측,노원구,서울특별시 노원구 마들로 86 한내근린공원 남측,37.62155533,127.0695114,2017-08-30,15,,LCD
1642, 서울여대 남문,노원구,서울특별시 노원구 화랑로 621 서울여자대학교 서울여대 후문,37.62531662,127.0881348,2017-08-23,7,,LCD
1643, 태릉입구역 8번출구,노원구,서울특별시 노원구 공릉동 687-6 태릉입구역 8번출구,37.61736679,127.0752106,2017-11-01,10,,LCD
1646, 삼육대 입구,노원구,서울특별시 노원구 공릉동 26-43 삼육대 입구,37.63848877,127.1079025,2017-11-01,10,,LCD
1650, 중계근린공원내,노원구,서울특별시 노원구 중계동 506-3 중계근린공원내,37.63957977,127.0651016,2017-11-01,,25,QR
1651, 상계동 우방유쉘아파트 앞,노원구,서울특별시 노원구 상계동 1118-9 맥도날드 상계점 앞,37.67237473,127.0559921,2017-11-01,20,,LCD
1652, 파르코 앞,노원구,서울특별시 노원구 상계동 1263 파르코 앞,37.68000031,127.0555801,2017-11-01,10,,LCD
1653, 노원역1번출구,노원구,서울특별시 노원구 상계동 335-4 노원역1번출구,37.65620041,127.0636215,2017-11-01,10,,LCD
1654, 당고개입구 오거리,노원구,서울특별시 노원구 상계동 172-2 보훈회관 대여소,37.66379166,127.0754471,2017-11-01,15,,LCD
1655, 공릉1단지아파트,노원구,서울특별시 동일로 1127 공릉1단지아파트,37.63111115,127.0701599,2017-11-01,15,,LCD
1656, 중앙하이츠 아파트 입구,노원구,서울특별시 노원구 노원로 434 상계2차중앙하이츠아파트,37.65501785,127.0675049,2017-11-01,12,,LCD
1657, 노원구청,노원구,서울특별시 노원구 노해로 437 노원구청,37.65404892,127.0573273,2017-11-01,20,,LCD
1659, 중계동 을지중학교,노원구,서울특별시 노원구 중계동 370 중계동 을지중학교,37.65032959,127.0716019,2017-11-01,10,,LCD
1660, 서울시립과학관,노원구,서울특별시 노원구 하계동 266 서울시립과학관,37.64207077,127.076622,2017-11-01,8,,LCD
1661, 당현천근린공원,노원구,서울특별시 노원구 동일로 1342 당현천근린공원,37.64963913,127.0656052,2017-11-28,10,,LCD
1662, 노원역7번출구,노원구,서울특별시 노원구 노해로 459 메가빌딩,37.65421677,127.0592117,2017-11-28,20,,LCD
1663, 동해문화예술관앞,노원구,서울특별시 노원구 화랑로 429 동해문화예술관앞,37.61938095,127.0578537,2017-11-28,25,,LCD
1664, 노해근린공원내,노원구,서울특별시 노원구 노원로22길 1 노해근린공원내,37.64936066,127.0704422,2017-11-28,10,,LCD
1665, 양지근린공원앞,노원구,서울특별시 노원구 한글비석로 227 양지근린공원앞,37.64733505,127.0764237,2017-11-28,10,,LCD
1666, 노원소방서인근,노원구,서울특별시 노원구 노원로26길 111 노원소방서인근,37.65578079,127.0717773,2017-11-28,10,,LCD
1667, 중계중학교,노원구,서울특별시 노원구 덕릉로76길 23 중계중학교,37.65449905,127.0743866,2017-11-28,10,,LCD
1668, 중계역 6번출구,노원구,서울특별시 노원구 동일로 지하 1308-1 중계역 6번출구,37.64550781,127.0632553,2017-11-28,10,,LCD
1669, 중계역 3번출구,노원구,서울특별시 노원구 동일로 지하 1308-1 중계역 3번출구,37.64352798,127.0652237,2017-11-28,9,,LCD
1670, 노원경찰서교차로,노원구,서울특별시 노원구 노원로 283 노원경찰서교차로,37.64340973,127.0718384,2017-11-28,20,,LCD
1671, 인덕대학교,노원구,서울특별시 노원구 초안산로 12 인덕대학교,37.62934875,127.0548248,2017-11-28,15,,LCD
1672, 상계동수락리버시티,노원구,서울특별시 노원구 누원로 18 상계동수락리버시티,37.68859863,127.0534058,2017-11-28,15,,LCD
1674, 서울북부고용센터앞,노원구,서울특별시 노원구 노해로 450 서울북부고용센터앞,37.65354919,127.0580826,2017-11-28,15,,LCD
1675, 월계문화체육센터,노원구,서울특별시 노원구 월계로 280 월계문화체육센터,37.62694168,127.05513,2017-12-22,9,,LCD
1677, 육군사관학교 앞,노원구,서울특별시 노원구 화랑로 570 육군사관학교 앞,37.62316513,127.0904999,2017-12-22,15,,LCD
1678, 성서대학교 밀알관,노원구,서울특별시 노원구 동일로214길 32 성서대학교 밀알관,37.6484375,127.0644455,2018-02-26,10,,LCD
1679, 삼육대 도서관,노원구,서울특별시 노원구 화랑로 815 삼육대 도서관,37.6428299,127.1066666,2018-02-26,10,,LCD
1680, 삼육대 제3과학관,노원구,서울특별시 노원구 화랑로 653 삼육대 후문 삼거리,37.64265442,127.1083832,2018-02-26,7,,LCD
1681, 현대6차 아파트,노원구,서울특별시 노원구 중계로8길 20 현대6차 아파트,37.64580154,127.0822601,2018-03-15,12,,LCD
1682, 중계종합사회복지관 교차로,노원구,서울특별시 노원구 덕릉로 662 중계3단지주공영구임대아파트,37.65745544,127.0755463,2018-03-15,,13,QR
1683, 노원문화예술회관,노원구,서울특별시 노원구 중계로 181 노원문화예술회관,37.65045929,127.0808868,2018-10-27,7,,LCD
1684, 태릉입구역 5번출구,노원구,서울특별시 노원구 동일로 986 태릉입구역 5번출구와 6번출구 사이,37.61832047,127.0756302,2018-10-27,20,,LCD
1685, 불암고등학교 앞 횡단보도,노원구,서울특별시 노원구 중계로 155 불암고등학교 앞 횡단보도,37.64818954,127.0804825,2018-10-27,8,,LCD
1686, 상계주공10단지 종합상가 앞,노원구,서울특별시 노원구 동일로227길 85 온수골사거리(스타벅스앞),37.66114044,127.0580521,2018-11-02,15,,LCD
1688, 마들역 7번출구,노원구,서울특별시 노원구 동일로 지하 1530-1 마들역 7번출구,37.66566086,127.0572968,2018-11-02,,9,QR
1689, 마들역 3번출구,노원구,서울특별시 노원구 동일로 지하 1530-1 마들역 3번출구,37.66524887,127.0578919,2018-11-02,,10,QR
1690, 도봉운전면허시험장 버스정류장 옆,노원구,서울특별시 노원구 동일로 1449 도봉운전면허시험장,37.6577301,127.0593109,2018-11-02,10,,LCD
1691, 노원정보도서관,노원구,서울특별시 노원구 노원로34길 43 노원정보도서관,37.66070938,127.0653305,2018-11-02,10,,LCD
1692, 온곡초교 교차로,노원구,서울특별시 노원구 한글비석로 471 온곡초교 교차로,37.66418839,127.0660095,2018-12-14,10,,LCD
1693, 원자력 병원,노원구,서울특별시 노원구 노원로 75 원자력병원 국가방사선 비상진료센터,37.62818909,127.0821075,2019-03-29,10,,LCD
1696,수락리버시티4단지,노원구,서울특별시 노원구 누원로 18 수락리버시티4단지,37.68645096,127.0528336,2020-03-21,,10,QR
1697,상계주공2단지 219동,노원구,서울특별시 노원구 동일로215길 81 새상계교회,37.65024948,127.0571518,2020-03-23,,10,QR
2901,공릉동풍림아파트 101동,노원구,서울특별시 노원구 섬밭로 139 공릉풍림아파트,37.62981415,127.0665054,2020-03-24,,8,QR
2902,공릉풍림아파트 108동,노원구,서울특별시 노원구 섬밭로 139 공릉풍림아파트,37.62862015,127.0669098,2020-03-24,,12,QR
2903,월계초안아파트 1단지,노원구,서울특별시 노원구 덕릉로60타길 24,37.63372803,127.0443649,2020-03-24,,10,QR
2904,중계3차청구아파트,노원구,서울특별시 노원구 중계로 233 청구3차아파트,37.65050507,127.0739822,2020-03-24,,8,QR
2907, 월계중학교,노원구,서울특별시 노원구 초안산로 29 신계초등학교,37.63074875,127.0531082,2020-03-24,,15,QR
2908, 광운대학교 중앙도서관,노원구,서울특별시 노원구 광운로 20 광운대학교,37.62000275,127.0585632,2020-03-24,,20,QR
2909, 석계역 3번 출구,노원구,서울특별시 노원구 화랑로 351-2 구두수선대196,37.61545944,127.0674515,2020-03-25,,13,QR
2910,도깨비시장,노원구,서울특별시 노원구 동일로 1028 한의학명가,37.6220932,127.0744247,2020-03-25,,10,QR
2911,상계역중앙시장,노원구,서울특별시 노원구 한글비석로 389-2 가로판매대,37.6588707,127.0719147,2020-03-23,,7,QR
2912,대진고등학교,노원구,서울특별시 노원구 한글비석로 97,37.63815689,127.0732651,2020-03-23,,20,QR
2913,상계8동 주민센터,노원구,서울특별시 노원구 동일로227길 85 상계주공11단지아파트,37.666996,127.0515289,2020-03-23,,17,QR
2914,서울과학기술대학교(미래관),노원구,서울특별시 노원구 노원로 75 한국원자력의학원,37.62950897,127.0810394,2020-06-10,,10,QR
2915,서울과학기술대학교(어학교육원),노원구,서울특별시 노원구 공릉로58길 130 서울과학기술대학교 생활관,37.63489914,127.0776749,2020-03-24,,35,QR
2917,신창중학교 후문 맞은편 버스정류장,노원구,서울특별시 노원구 월계동 855-26,37.62807083,127.0469208,2020-03-30,,10,QR
2919,등나무 근린공원(시립북서울미술관 앞),노원구,서울특별시 노원구 동일로 1231-2 가로판매대173,37.63999557,127.0665741,2020-03-23,,22,QR
2920,상계중학교(당현2교사거리),노원구,서울특별시 노원구 상계동 225-5,37.65103531,127.0687103,2020-03-23,,14,QR
2921,중계역 2번출구,노원구,서울특별시 노원구 동일로208길 19 중계무지개아파트,37.64548874,127.0645828,2020-03-26,,10,QR
4002, 상계주공 14단지 상가 앞,노원구,서울특별시 노원구 (도로명) 서울 노원구 동일로 228길 23,37.66963577,127.0597076,2021-03-03,,10,QR
4003, 상계초교 입구 교차로 명주빌딩 앞,노원구,서울특별시 노원구 서울 노원구 노원로 449,37.65680313,127.0665741,2021-03-03,,15,QR
4004, 당고개입구오거리 당현천변,노원구,서울특별시 노원구 서울 노원구 중계동 140-46,37.66260529,127.0755768,2021-03-03,,10,QR
4005, 중계2차 한화꿈에그린 101동 인근,노원구,서울특별시 노원구 서울 노원구 덕릉로83길 5,37.65955734,127.0752564,2021-03-03,,10,QR
4007, 노원 을지대학교 병원,노원구,서울특별시 노원구 서울 노원구 한글비석로 68,37.63666916,127.0696945,2021-03-04,,9,QR
4008, 하계 어린이 공원,노원구,서울특별시 노원구 서울 노원구 하계2동 273-3,37.63214493,127.0698242,2021-03-02,,10,QR
4009, 월계프라자,노원구,서울특별시 노원구 초안산로5길 22 대우아파트,37.63284302,127.0521317,2021-02-26,,20,QR
4011, 월계 센트럴 아이파크,노원구,서울특별시 노원구 서울 노원구 초안산로2라길 26,37.62917328,127.0569305,2021-02-26,,10,QR
4013, 중계 롯데마트,노원구,서울특별시 노원구 서울 노원구 노원로 330,37.64584351,127.070755,2021-03-03,,20,QR
4014, 당고개역 3번 출구,노원구,서울특별시 노원구 서울 노원구 상계로 305,37.67030334,127.0788422,2021-03-03,,10,QR
4016, 노원 마들스타디움,노원구,서울특별시 노원구 서울 노원구 덕릉로 450,37.64530945,127.0574417,2021-03-25,,10,QR
4017, 월계 청백1단지 아파트 정류장,노원구,서울특별시 노원구 초안산로 89 월계청백1단지아파트,37.63459396,127.052063,2021-02-26,,20,QR
4018, 상계주공15단지 버스정류소,노원구,서울특별시 노원구 서울 노원구 상계동 650,37.66782761,127.056839,2021-03-02,,8,QR
4019, 상계주공10단지 버스정류소,노원구,서울특별시 노원구 서울 노원구 상계동 694-1,37.66214371,127.058197,2021-03-03,,7,QR
4020, 중계동 성모빌딩 앞,노원구,서울특별시 노원구 한글비석로 263 성모빌딩,37.65116119,127.0765915,2021-03-04,,10,QR
4021, 중계본동 입구,노원구,서울특별시 노원구 서울 노원구 중계로 90,37.64426041,127.083313,2021-03-04,,10,QR
4023, 월계역 1번 출구,노원구,서울특별시 노원구 월계동 263-6,37.63441086,127.0588684,2021-02-26,,10,QR
4024, 꿈의숲 SK뷰 아파트,노원구,서울특별시 노원구 서울시 노원구 월계로 42길97,37.62045288,127.054451,2021-03-04,,10,QR
4025, 한천교 동편,노원구,서울특별시 노원구 서울 노원구 공릉동 547-1,37.62533569,127.0701904,2021-03-04,,10,QR
4026, 상계주공1단지아파트,노원구,서울특별시 노원구 덕릉로459-21,37.64795303,127.0579376,2021-03-03,,10,QR
4027, 한내 행복발전소 옆,노원구,서울특별시 노원구 서울 노원구 마들로3길 15 (월계동),37.62741089,127.0621414,2021-04-27,,10,QR
4028, 한일유앤아이아파트 105동 인근,노원구,서울특별시 노원구 노원구 상계동 197-38,37.65351868,127.0713043,2021-03-04,,10,QR
4029, 청소년수련관 후문,노원구,서울특별시 노원구 노원구 중계동 504-2,37.6396637,127.0604172,2021-03-02,,8,QR
4031, 청암예술학교 앞,노원구,서울특별시 노원구 덕릉로76길 18 원광초등학교,37.65153503,127.0732727,2021-03-25,,10,QR
4032, 은행사거리 성모빌딩 앞,노원구,서울특별시 노원구 서울 노원구 한글비석로 268,37.65149689,127.0770416,2021-03-02,,10,QR
4033, 녹천역 4번 출구 옆,노원구,서울특별시 노원구 서울 노원구 월계동 700-6,37.64292908,127.0519486,2021-03-02,,9,QR
4034, 상계근린공원 운동장 앞,노원구,서울특별시 노원구 상계동 620,37.67099762,127.0501785,2021-03-03,,10,QR
4035, 휴플러스 수락한신아파트 101동 앞,노원구,서울특별시 노원구 상계동 996-2,37.674366,127.0594711,2021-05-14,,6,QR
4036, 하계역 6번출구,노원구,서울특별시 노원구 노원구 하계동 273-5,37.63793945,127.0671539,2021-04-27,,9,QR
4037, 물넘이교,노원구,서울특별시 노원구 노원구 중계동 588-5,37.65408325,127.0719528,2021-06-01,,15,QR
4039, 서울시 북부여성발전센터,노원구,서울특별시 노원구 동일로207길 50,37.64304352,127.0621338,2021-07-05,,10,QR
4040, 공릉로 26길,노원구,서울특별시 노원구 공릉동 656-6,37.61965561,127.0814667,2021-07-15,,10,QR
4041, 공릉역3번출구,노원구,서울특별시 노원구 공릉동 405-6,37.62500381,127.0730133,2021-07-23,,8,QR
4042, 상계문화정보도서관,노원구,서울특별시 노원구 노원구 동일로243길 57,37.67851257,127.0517426,2021-08-27,,10,QR
4043, 상계주공13단지 1301동,노원구,서울특별시 노원구 한글비석로54길 92 상계주공13단지아파트,37.66674042,127.0638886,2021-09-24,,10,QR
4044, 공릉산 백세문 입구,노원구,서울특별시 노원구 노원로 62 공릉해링턴플레이스,37.62812042,127.0854874,2021-10-07,,4,QR
4045, 은하수 공원,노원구,서울특별시 노원구 노원구 우이천로 102,37.63000488,127.0440979,2021-10-27,,8,QR
5301, 상계주공1단지 버스정류장 옆(대원빌딩 앞),노원구,서울특별시 노원구 동일로 1331-2 구두수선대,37.64805984,127.0623932,2021-12-15,,4,QR
5305, 대륜E&S 서울지사 앞,노원구,서울특별시 노원구 덕릉로70길 64,37.64255524,127.0603867,2022-05-16,,10,QR
5306, 동신아파트 후문 옆,노원구,서울특별시 노원구 공릉로 213 동신아파트,37.62786102,127.0763779,2022-05-16,,6,QR
5309, 월계 롯데캐슬아파트 뒤,노원구,서울특별시 노원구 월계동 865-5,37.62514877,127.0499344,2022-07-11,,5,QR
5310, 목련아파트,노원구,서울특별시 노원구 노원로 333 목련아파트상가,37.64862823,127.0691834,2022-07-27,,9,QR
5308, 상계신동아아파트,노원구,서울특별시 노원구 한글비석로46나길 10 금호아파트,37.66767883,127.068367,2022-07-06,,5,QR
5311, 주공601동 상가 노원지하보도 앞,노원구,서울특별시 노원구 동일로 1386-2 가로판매대,37.65229416,127.061348,2022-07-29,,5,QR
5314, 월계1동주민센터 앞,노원구,서울특별시 노원구 석계로 59 월계1동주민센터,37.61985016,127.0631027,2022-09-06,,6,QR
5313, 중계주공2단지 앞,노원구,서울특별시 노원구 한글비석로 332 주공2단지아파트,37.65694046,127.0780487,2022-08-23,,5,QR
5315, 당고개역 앞,노원구,서울특별시 노원구 상계로 309,37.67073822,127.0796204,2022-09-07,,5,QR
5317,공릉동 신도1차 아파트 뒤,노원구,서울특별시 노원구 동일로191가길 59 공릉동 신도1차아파트,37.62780762,127.0696182,2022-10-31,,10,QR
5318, 극동의 푸른별 아파트 뒤(중계4동주민센터 앞),노원구,서울특별시 노원구 한글비석로14길 36 극동의푸른별 2차아파트,37.65868759,127.0775909,2022-10-11,,10,QR
5319,연해피빌 앞,노원구,노원구 공릉로62가길 14,37.63645935,127.0727692,2022-11-29,,10,QR
5320,한국스포츠정책과학원 앞,노원구,노원구 화랑로 727,37.63573456,127.1058502,2022-12-20,,8,QR
900, 은평예술회관,은평구,서울특별시 은평구 녹번동 85-4 은평예술회관,37.60394287,126.9276962,2016-09-02,,20,QR
902, 진관동 은빛초등학교,은평구,서울특별시 은평구 진관동 45-21 진관동 은빛초등학교,37.64310837,126.9182205,2016-09-02,10,,LCD
903, 은평뉴타운 아이파크,은평구,서울특별시 은평구 진관동 13-20 은평뉴타운 아이파크,37.64586639,126.9273911,2016-09-02,20,,LCD
904, 은평뉴타운 푸르지오,은평구,서울특별시 은평구 진관동 5-8 은평뉴타운 푸르지오,37.64867401,126.9307022,2016-09-02,18,,LCD
905, 구파발역 2번출구,은평구,서울특별시 은평구 진관동 86-31 구파발역 2번출구,37.63623428,126.9189987,2016-09-02,,10,QR
906, 연신내역 5번출구,은평구,서울특별시 은평구 대조동 207-8 연신내역 5번출구,37.61721039,126.9195786,2016-09-02,10,,LCD
907, CJ 드림시티,은평구,서울특별시 은평구 역촌동 43-11 CJ 드림시티,37.59949112,126.9168625,2016-09-02,10,,LCD
908, 구산역 4번출구,은평구,서울특별시 은평구 갈현동 536-8 구산역 4번출구,37.61318588,126.9173508,2016-09-02,10,,LCD
909, 백련산 힐스테이트 3차,은평구,서울특별시 은평구 응암동 761-9 백련산 힐스테이트 3차,37.58699417,126.9228821,2016-09-02,10,,LCD
911, 은평평화공원(역촌역4번출구),은평구,서울특별시 은평구 녹번동 153-31 은평평화공원(역촌역4번출구),37.60558319,126.9229355,2016-09-02,10,,LCD
912, 응암오거리,은평구,서울특별시 은평구 응암동 604-5 응암오거리,37.58966064,126.9169464,2016-09-02,20,,LCD
913, 이마트 버스정류장(서부경찰서 방면),은평구,서울특별시 은평구 응암동 90-15 이마트 은평점,37.60070038,126.9201279,2016-09-02,15,,LCD
914, 새절역 2번출구,은평구,서울특별시 은평구 응암동 610-3 새절역 2번출구,37.59079742,126.9136505,2016-09-02,20,,LCD
915, 증산역 4번출구,은평구,서울특별시 은평구 증산동 199-8 증산역 4번출구,37.5843811,126.9098969,2016-09-02,10,,LCD
916, 평생학습관 앞,은평구,서울특별시 은평구 역촌동 15-40 평생학습관 앞,37.60784912,126.9213257,2016-09-02,13,,LCD
917, 녹번역 3번출구,은평구,서울특별시 은평구 은평로 234-2 구두수선대,37.60078049,126.9352112,2016-09-02,,10,QR
919, 서울혁신파크,은평구,서울특별시 은평구 녹번동 15-2 서울혁신파크,37.60702515,126.9333115,2016-09-02,10,,LCD
921, 신도고등학교,은평구,서울특별시 은평구 진관동 242-14 신도고등학교,37.63001633,126.9190292,2016-09-02,10,,LCD
922, 연신내역 4번출구,은평구,서울특별시 은평구 대조동 227-2 연신내역 4번출구,37.61780167,126.9219666,2016-09-02,10,,LCD
923, 국민은행 연서지점,은평구,서울특별시 은평구 불광동 355 국민은행 연서지점,37.62094879,126.9256363,2016-09-02,10,,LCD
924, 메뚜기다리,은평구,서울특별시 은평구 진관동 161-9 메뚜기다리,37.62851715,126.9295807,2016-09-02,12,,LCD
925, 불광역 2번출구,은평구,서울특별시 은평구 불광동 285-43 불광역 2번출구,37.60956573,126.9309769,2016-09-02,8,,LCD
927, 연신내역 3번출구 인근,은평구,서울특별시 은평구 불광동 304-5 연신내역 3번출구 인근,37.61785507,126.9225235,2016-09-02,10,,LCD
928, 은평역사한옥박물관,은평구,서울특별시 은평구 진관동 133-29 은평역사한옥박물관,37.64131546,126.9380417,2016-09-02,15,,LCD
930, 구 서부경찰서 건너편,은평구,서울특별시 은평구 역촌동 41-7 구 서부경찰서 건너편,37.60166168,126.9203033,2016-09-02,7,,LCD
931, 역촌파출소,은평구,서울특별시 은평구 역촌동 45-34 역촌파출소,37.60473633,126.9153366,2016-09-02,32,,LCD
932, 예일여중,은평구,서울특별시 은평구 연서로 117 예일여중,37.61000443,126.9163971,2016-09-02,20,,LCD
933, 역촌종합시장 버스정류장(예일여고 방면),은평구,서울특별시 은평구 서오릉로 163 LG서비스 역촌점,37.61248398,126.9148789,2016-09-02,15,,LCD
934, 신사동 성당,은평구,서울특별시 은평구 신사동 41-3 신사동 성당,37.59714127,126.9095993,2017-11-01,10,,LCD
937, 상림마을 롯데캐슬2단지 옆,은평구,서울특별시 은평구 진관동 30-23 상림마을 롯데캐슬2단지 옆,37.64585114,126.9237976,2017-11-01,10,,LCD
938, 금암 문화공원,은평구,서울특별시 진관동 44-28 금암 문화공원,37.64468384,126.918457,2017-11-01,10,,LCD
939, 은평구청 교차로,은평구,서울특별시 응암동 82-31 은평구청 교차로,37.60169983,126.9274216,2017-11-01,15,,LCD
941, 은평뉴타운 도서관,은평구,서울특별시 진관동 141-27 은평뉴타운 도서관,37.63722229,126.9333038,2017-11-01,13,,LCD
942, 상림마을 생태공원,은평구,서울특별시 진관동 16-4 상림마을 생태공원,37.64408112,126.9292831,2017-11-01,9,,LCD
943, 은평구청 보건소,은평구,서울특별시 녹번동 84 은평구청 보건소,37.60240173,126.9286499,2017-11-01,10,,LCD
945, 기자촌 사거리,은평구,서울특별시 은평구 진관동 149-17 기자촌 사거리,37.63414001,126.9323425,2017-11-01,10,,LCD
946, 독바위역,은평구,서울특별시 불광로 129 독바위역,37.61843872,126.9328842,2018-05-30,,16,QR
947, 연신내 선일하이츠빌 정류소,은평구,서울특별시 불광동 484-165 연신내 선일하이츠빌 정류소,37.62266922,126.9199905,2017-11-01,10,,LCD
948, 디지털미디어 시티역 4번출구(DMC역),은평구,서울특별시 증산동 239 디지털미디어 시티역 4번출구,37.57720184,126.9023514,2017-11-01,10,,LCD
949, 연신내역 1번 출구,은평구,서울특별시 불광동 487-2 연신내역 1번 출구,37.61978149,126.9208069,2017-11-01,6,,LCD
950, 구산역 2번 출구 예일여고 버스정류장,은평구,서울특별시 은평구 연서로 124,37.60980225,126.9167938,2017-11-01,15,,LCD
952, 서울연신중학교,은평구,서울특별시 불광동 400-4번지 서울연신중학교,37.62265015,126.9252472,2017-11-01,10,,LCD
953, 서울연신초등학교,은평구,서울특별시 불광동 73-1번지 서울연신초등학교,37.6257782,126.9288178,2017-11-01,10,,LCD
954, 은평뉴타운구파발9단지,은평구,서울특별시 은평구 진관3로 77 은평뉴타운구파발9단지,37.64260864,126.9214783,2017-11-28,10,,LCD
956, 응암시장교차로,은평구,서울특별시 은평구 응암로 247 외환은행,37.59441376,126.9180145,2017-11-28,9,,LCD
958, 본 서부병원 버스정류장(은평 세무서 방면),은평구,서울특별시 은평구 은평로 136 신한은행 응암동 지점 앞,37.60036087,126.9228134,2018-10-16,13,,LCD
959, 구파발10단지 인근,은평구,서울특별시 은평구 진관3로 73-17 구파발10단지 인근,37.6436615,126.9145584,2018-10-18,10,,LCD
960, 구파발역 환승센터,은평구,서울특별시 은평구 진관2로 지하 15-25 구파발역 환승센터,37.63825226,126.9194565,2018-10-18,15,,LCD
961, 불광역 9번 출구,은평구,서울특별시 은평구 통일로 732 불광역 9번 출구,37.61096954,126.9298096,2018-10-18,8,,LCD
962, 은평뉴타운 힐데스하임,은평구,서울특별시 은평구 진관2로 15-46 은평구 진관2로 15-46,37.63925934,126.9189072,2018-10-18,10,,LCD
963, 대호프라자아파트,은평구,서울특별시 은평구 불광로 90 대호프라자아파트,37.61442947,126.932579,2018-10-16,13,,LCD
964, 북한산힐스테이트 7차아파트,은평구,서울특별시 은평구 통일로 796 북한산 힐스테이트7차,37.61654282,126.9251251,2018-10-16,10,,LCD
965, 서울특별시 은평병원,은평구,서울특별시 은평구 백련산로 90 서울특별시 은평병원,37.59347916,126.9231873,2018-10-16,10,,LCD
966, 서울혁신파크1,은평구,서울특별시 은평구 통일로 684 서울혁신파크1,37.60903168,126.9346771,2018-08-28,10,,LCD
967, 서울혁신파크2,은평구,서울특별시 은평구 통일로 684 서울혁신파크2,37.60890961,126.9324188,2018-08-29,13,,LCD
968, 은평뉴타운 상림마을 13단지,은평구,서울특별시 은평구 진관4로 48-50 은평뉴타운 상림마을 13단지,37.64208984,126.9294128,2018-10-18,7,,LCD
969, 은평 지웰테라스,은평구,서울특별시 은평구 진관4로 78-38 은평지웰 테라스,37.64339447,126.9321365,2018-12-14,9,,LCD
971, 역촌 센트레빌 아파트,은평구,서울특별시 은평구 갈현로3나길 23 역촌 센트레빌 아파트 107동 인근,37.60232925,126.9065476,2018-12-14,20,,LCD
972, 수색역,은평구,서울특별시 은평구 수색로 261 수색역,37.58216095,126.894928,2019-06-14,20,,LCD
973,제각말푸르지오 5-1단지 아파트,은평구,서울특별시 은평구 진관동 136-45,37.63734818,126.9358444,2020-04-08,,10,QR
974,연신초등학교옆 마을마당,은평구,서울특별시 은평구 불광동 70-1,37.62672043,126.9290161,2020-04-09,,10,QR
975,백련산 힐스테이트상가앞,은평구,서울특별시 은평구 백련산로 38 백련산 힐스테이트 2차,37.59036255,126.9230118,2020-04-10,,10,QR
976,진관고등학교앞,은평구,서울특별시 은평구 진관4로 26 진관고등학교,37.64350891,126.9241028,2020-04-09,,10,QR
977,신도중학교앞,은평구,서울특별시 은평구 진관동 148-31,37.63310242,126.9315033,2020-04-08,,10,QR
978,녹번 힐스테이트상가앞,은평구,서울특별시 은평구 통일로 602-1 지하철3호선 녹번역,37.60100937,126.9359283,2020-04-09,,10,QR
979,원풍빌라앞,은평구,서울특별시 은평구 신사동 178-9,37.59186172,126.9060822,2020-04-10,,10,QR
982, 녹번초등학교(서오릉로),은평구,서울특별시 은평구 녹번동 81-27,37.60412598,126.925087,2020-04-10,,10,QR
984,상신초등학교앞 버스정류장,은평구,서울특별시 은평구 가좌로 316 상신교회,37.59580994,126.9102631,2020-04-10,,9,QR
985, 은평세무서 버스정류장(은평구청 방면),은평구,서울특별시 은평구 은평로 170 상현빌딩,37.60119247,126.926384,2020-04-10,,10,QR
989, 신응교(가좌로) 앞,은평구,서울특별시 은평구 가좌로 255,37.59181213,126.9148331,2020-04-10,,10,QR
991,흥국사 정류장,은평구,서울특별시 은평구 진관동 298-2,37.6567688,126.942009,2020-04-06,,10,QR
992,북한산입구 정류장,은평구,서울특별시 은평구 진관동 289,37.65842819,126.9460602,2020-04-06,,10,QR
993,은평뉴타운 은뜨락아파트앞,은평구,서울특별시 은평구 진관동 235-2,37.63028717,126.9195633,2020-04-08,,15,QR
994,북한산생태공원입구(교통섬),은평구,서울특별시 은평구 불광동 2-1,37.61050797,126.9385376,2020-04-09,,10,QR
995,은평다목적체육관,은평구,서울특별시 은평구 진관1로 52,37.63140869,126.9254074,2020-04-08,,10,QR
996,응암역2번출구 국민은행 앞,은평구,서울특별시 은평구 연서로 9 센타폴리스,37.59996796,126.9157257,2020-04-10,,10,QR
4657, 본 서부병원 교차로 사거리,은평구,서울특별시 은평구 은평로127,37.60049438,126.9221573,2021-03-19,,17,QR
4658, 녹번역1번출구앞,은평구,서울특별시 은평구 통일로,37.60176849,126.9354248,2021-03-18,,10,QR
4659, 신진과학기술고등학교 버스정류장(응암시장 방면),은평구,서울특별시 은평구 응암로291,37.59750366,126.9199982,2021-03-18,,10,QR
4663," 불광역3,6호선 버스정류장(동명여고 방면)",은평구,서울특별시 은평구 통일로760,37.61326218,126.9278641,2021-03-17,,10,QR
4665, 응암역3번 출구(서부경찰서 방면),은평구,서울특별시 은평구 은평로85 CJ드림시티 A동,37.59967041,126.91716,2021-03-19,,10,QR
4667, 폭포동입구 교차로,은평구,서울특별시 은평구 연서로,37.62962723,126.9301148,2021-03-17,,10,QR
4668, 기자촌사거리,은평구,서울특별시 은평구 진관2로,37.63390732,126.931778,2021-03-17,,10,QR
4671, 청구성심병원 앞,은평구,진관2로,37.62087631,126.9197998,2021-03-17,,10,QR
4672, 준빌딩 앞,은평구,진관2로,37.62205124,126.9195862,2021-03-17,,10,QR
4652, 신사두산위브2차아파트 앞,은평구,가좌로12길,37.59931564,126.9075928,2020-08-20,,10,QR
4674, 녹번역e편한세상 캐슬 정문 앞,은평구,은평로220,37.60034561,126.9314804,2021-03-18,,10,QR
4653, 불광역 9번 출구 맞은편,은평구,불광로 41,37.61156845,126.9304886,2020-11-03,,10,QR
4676, 갈현1동 주민센터,은평구,은평구 갈현로 301,37.62360764,126.9168854,2021-05-17,,9,QR
4677, 백련산 SK뷰 아이파크 해모로 아파트 앞,은평구,"은평구 응암로 278 맞은편
(응암동 767-1 공원 앞)",37.59612656,126.9196243,2021-05-17,,10,QR
4678, 백련산로 녹번센트레빌,은평구,은평구 백련산로160,37.59954453,126.9265366,2021-09-24,,10,QR
4681,박석고개(은평소방서) 앞,은평구,은평구 불광동 474-2,37.62794495,126.9197693,2022-01-11,,6,QR
4683, 은평 성모병원 사거리,은평구,은평구 통일로 1034,37.63470078,126.9173584,2022-05-04,,10,QR
4684, 응암2동주민센터 버스정류장(영락중학교 방면),은평구,은평구 백련산로 112,37.59586716,126.9234924,2022-06-03,,10,QR
4685, DMC역 5번 출구(수색역 방향),은평구,은평구 수색로 194,37.57890701,126.9012985,2022-06-28,,25,QR
4686, 우물골 근린공원,은평구,은평구 진관2로 60 323동 앞,37.63406754,126.9253922,2022-08-26,,7,QR
4687, 역촌센트레빌아파트 101동 앞,은평구,은평구 갈현로3나길 23 101동 앞,37.60354233,126.906723,2022-08-26,,10,QR
4689,은평서해그랑블아파트앞,은평구,은평구 서오릉로 253,37.61705017,126.9065857,2022-11-18,,10,QR
115, 마스타 빌딩 앞,서대문구,서울특별시 서대문구 연희로 7,37.55893326,126.9271164,2015-09-07,,15,QR
117, 홍은사거리,서대문구,마포구 서강로1길 30 ,37.59115982,126.94133,2015-09-07,,23,QR
123, 문화촌 공원,서대문구,서울특별시 서대문구 홍제동 277-23,37.59432983,126.9473877,2015-09-07,,20,QR
128, 신촌역(2호선) 1번출구 옆,서대문구,서울특별시 서대문구 연세로 3-5,37.55549622,126.9363403,2015-09-07,,20,QR
131, 증산2교,서대문구,서울특별시 서대문구 증가로 264,37.5841713,126.9111023,2015-09-07,,20,QR
133, 해담는다리,서대문구,서울특별시 서대문구 불광천길 150,37.58203125,126.9089966,2015-09-07,,15,QR
134, 연세로 명물길,서대문구,서울특별시 서대문구 명물길 33,37.55789185,126.9380798,2015-09-07,,8,QR
135, 명물길 원형무대 앞,서대문구,서대문구 창천동 31-69,37.55922699,126.9398422,2015-09-07,,10,QR
137, 신촌기차역입구 교차로,서대문구,서울특별시 서대문구 연세로2다길 58,37.55681229,126.9431839,2015-09-07,,10,QR
138, 신촌동 제1공영주차장 앞,서대문구,서울특별시 서대문구 증가로 264,37.5591774,126.9345245,2015-09-07,10,,LCD
139, 연세대 정문 건너편,서대문구,서울특별시 서대문구 연세로 42,37.55986404,126.9344177,2015-09-07,,10,QR
140, 이화여대 후문,서대문구,서울특별시 서대문구 연세로 50-1,37.560009,126.9407349,2015-09-07,,22,QR
141, 연대 대운동장 옆,서대문구,서울특별시 서대문구 연세로 50,37.56238174,126.9326477,2015-09-07,,10,QR
159, 이대역 4번 출구,서대문구,서울특별시 서대문구 대현동 60-11,37.55695343,126.9463425,2016-06-29,,5,QR
160,북아현동 가구거리,서대문구,서울특별시 서대문구 북아현동 251-78,37.55754852,126.9593811,2016-06-29,,13,QR
161, 무악재역1번 출구,서대문구,서울특별시 서대문구 통일로 380-4,37.58224487,126.9506455,2016-06-29,8,,LCD
162, 봉원고가차도 밑,서대문구,서울특별시 서대문구 대신동 143-1,37.56526947,126.9462433,2016-06-29,15,,LCD
163, 명지전문대학교 정문 앞,서대문구,서울특별시 서대문구 홍은동 산25-3,37.58369827,126.9249649,2016-06-29,,7,QR
164, 북가좌1동 주민센터,서대문구,서울특별시 서대문구 북가좌동 477-1,37.57447815,126.9100494,2016-06-29,,10,QR
165, 중앙근린공원,서대문구,서울특별시 서대문구 북가좌동 470-1,37.57513809,126.9139404,2016-06-29,20,,LCD
166, 가재울 초등학교,서대문구,서울특별시 서대문구 연희동 530,37.57381821,126.9192352,2016-06-29,20,,LCD
167, 연가초등학교 옆,서대문구,서울특별시 서대문구 북가좌동 70-119,37.57946014,126.9171295,2016-06-29,,15,QR
169, 북가좌 삼거리,서대문구,서울특별시 서대문구 북가좌동 400,37.57300186,126.9077988,2016-06-29,,10,QR
170, DMC파크뷰자이아파트 302동 앞,서대문구,서울특별시 서대문구 남가좌동 124,37.57311249,126.9224472,2016-06-29,10,,LCD
171, 임광빌딩 앞,서대문구,미근동 317-1,37.56472397,126.9672775,2016-06-29,,10,QR
173, 서대문역 8번출구 앞,서대문구,서울특별시 서대문구 충정로2가 138,37.56477737,126.9661484,2016-06-29,8,,LCD
175, 홍연2교옆,서대문구,서울특별시 서대문구 홍은동 387-16,37.57806778,126.9308853,2016-06-29,20,,LCD
176, 명지대학교 도서관,서대문구,서울특별시 서대문구 거북골로 34,37.58109665,126.9240265,2017-04-24,10,,LCD
177, 북가좌 초등학교,서대문구,서울특별시 서대문구 거북골로19길 20,37.57767487,126.9098053,2016-07-06,8,,LCD
178, 증산3교 앞,서대문구,서울특별시 서대문구 북가좌동 352-9,37.57987595,126.9063492,2016-07-06,10,,LCD
179, 가좌역 4번출구 앞,서대문구,서울특별시 서대문구 남가좌동 293-3 ,37.56912231,126.9147949,2016-06-29,,14,QR
180, 충정로역 7번출구 아래,서대문구,서울특별시 서대문구 충정로3가 56-1,37.55996704,126.9624634,2016-06-29,10,,LCD
188, 홍은동 정원여중 입구,서대문구,서울특별시 서대문구 연희로37안길 51,37.58638763,126.9351273,2016-07-06,,9,QR
191, 서우빌딩,서대문구,서울특별시 서대문구 응암로 66,37.57889175,126.9107361,2016-07-06,10,,LCD
192, 연서어린이공원,서대문구,서울특별시 서대문구 연희동 519-7,37.57222748,126.9230652,2016-07-06,,10,QR
194, 증산교 앞,서대문구,서울특별시 서대문구 불광천길 36,37.57731628,126.9029694,2016-07-06,10,,LCD
